[
  {
    "name":"深圳市眼科医院",
    "address":"泽田路18号",
    "type":"医疗保健服务;专科医院;眼科医院|医疗保健服务;综合医院;三级甲等医院",
    "type_code":"090203|090101",
    "lng":114.014466,
    "lat":22.545914,
    "facility_type":"hospital",
    "business_period":"",
    "open_time":null,
    "close_time":null,
    "is_24h":false,
    "night_ratio":0.2,
    "night_service":true,
    "tel":"0755-23959510;0755-23959600",
    "adcode":"440304",
    "pcode":"440000",
    "citycode":"0755",
    "source":"amap"
  },
  {
    "name":"深圳市宝安人民医院",
    "address":"龙井二路118号",
    "type":"医疗保健服务;综合医院;三级甲等医院",
    "type_code":"090101",
    "lng":113.914854,
    "lat":22.562217,
    "facility_type":"hospital",
    "business_period":"",
    "open_time":null,
    "close_time":null,
    "is_24h":false,
    "night_ratio":0.2,
    "night_service":true,
    "tel":"0755-27788311",
    "adcode":"440306",
    "pcode":"440000",
    "citycode":"0755",
    "source":"amap"
  },
  {
    "name":"南方医科大学深圳医院",
    "address":"新湖路13号(新安地铁站E口步行260米)",
    "type":"医疗保健服务;综合医院;三级甲等医院",
    "type_code":"090101",
    "lng":113.896065,
    "lat":22.544303,
    "facility_type":"hospital",
    "business_period":"",
    "open_time":null,
    "close_time":null,
    "is_24h":false,
    "night_ratio":0.2,
    "night_service":true,
    "tel":"0755-23329999",
    "adcode":"440306",
    "pcode":"440000",
    "citycode":"0755",
    "source":"amap"
  },
  {
    "name":"香港大学深圳医院",
    "address":"海园一路1号",
    "type":"医疗保健服务;综合医院;三级甲等医院",
    "type_code":"090101",
    "lng":113.996092,
    "lat":22.525518,
    "facility_type":"hospital",
    "business_period":"",
    "open_time":null,
    "close_time":null,
    "is_24h":false,
    "night_ratio":0.2,
    "night_service":true,
    "tel":"0755-86913333",
    "adcode":"440304",
    "pcode":"440000",
    "citycode":"0755",
    "source":"amap"
  },
  {
    "name":"深圳市南山区人民医院",
    "address":"桃园路89号",
    "type":"医疗保健服务;综合医院;三级甲等医院",
    "type_code":"090101",
    "lng":113.922873,
    "lat":22.530603,
    "facility_type":"hospital",
    "business_period":"",
    "open_time":null,
    "close_time":null,
    "is_24h":false,
    "night_ratio":0.2,
    "night_service":true,
    "tel":"0755-26553111",
    "adcode":"440305",
    "pcode":"440000",
    "citycode":"0755",
    "source":"amap"
  },
  {
    "name":"深圳市宝安中医院(集团)",
    "address":"裕安二路25号",
    "type":"医疗保健服务;综合医院;三级甲等医院",
    "type_code":"090101",
    "lng":113.899183,
    "lat":22.571818,
    "facility_type":"hospital",
    "business_period":"",
    "open_time":null,
    "close_time":null,
    "is_24h":false,
    "night_ratio":0.2,
    "night_service":true,
    "tel":"0755-29629366",
    "adcode":"440306",
    "pcode":"440000",
    "citycode":"0755",
    "source":"amap"
  },
  {
    "name":"深圳大学总医院",
    "address":"桃源街道塘朗社区学苑大道1298号",
    "type":"医疗保健服务;综合医院;综合医院",
    "type_code":"090100",
    "lng":113.987481,
    "lat":22.594355,
    "facility_type":"hospital",
    "business_period":"",
    "open_time":null,
    "close_time":null,
    "is_24h":false,
    "night_ratio":0.2,
    "night_service":true,
    "tel":"0755-21839999;0755-21839165",
    "adcode":"440305",
    "pcode":"440000",
    "citycode":"0755",
    "source":"amap"
  },
  {
    "name":"南方科技大学医院",
    "address":"西丽街道留仙大道6019号",
    "type":"医疗保健服务;综合医院;综合医院",
    "type_code":"090100",
    "lng":113.949435,
    "lat":22.579685,
    "facility_type":"hospital",
    "business_period":"",
    "open_time":null,
    "close_time":null,
    "is_24h":false,
    "night_ratio":0.2,
    "night_service":true,
    "tel":"0755-25232188",
    "adcode":"440305",
    "pcode":"440000",
    "citycode":"0755",
    "source":"amap"
  },
  {
    "name":"宝安中心医院",
    "address":"广深路西乡段233号",
    "type":"医疗保健服务;综合医院;综合医院",
    "type_code":"090100",
    "lng":113.880095,
    "lat":22.580001,
    "facility_type":"hospital",
    "business_period":"",
    "open_time":null,
    "close_time":null,
    "is_24h":false,
    "night_ratio":0.2,
    "night_service":true,
    "tel":"0755-27956611;0755-27956811",
    "adcode":"440306",
    "pcode":"440000",
    "citycode":"0755",
    "source":"amap"
  },
  {
    "name":"深圳五洲中医院",
    "address":"西乡街道固兴社区固兴路68号(田心工业区爱美得A栋1层)",
    "type":"医疗保健服务;综合医院;综合医院",
    "type_code":"090100",
    "lng":113.852662,
    "lat":22.605134,
    "facility_type":"hospital",
    "business_period":"",
    "open_time":null,
    "close_time":null,
    "is_24h":false,
    "night_ratio":0.2,
    "night_service":true,
    "tel":"0755-26719191;18938072250",
    "adcode":"440306",
    "pcode":"440000",
    "citycode":"0755",
    "source":"amap"
  },
  {
    "name":"深圳前海泰康医院",
    "address":"南山街道梦海大道3099号前海泰康医院201",
    "type":"医疗保健服务;综合医院;综合医院",
    "type_code":"090100",
    "lng":113.892325,
    "lat":22.514673,
    "facility_type":"hospital",
    "business_period":"",
    "open_time":null,
    "close_time":null,
    "is_24h":false,
    "night_ratio":0.2,
    "night_service":true,
    "tel":"13265679607;4000195522",
    "adcode":"440305",
    "pcode":"440000",
    "citycode":"0755",
    "source":"amap"
  },
  {
    "name":"深圳市前海蛇口自贸区医院",
    "address":"工业七路128号",
    "type":"医疗保健服务;综合医院;综合医院",
    "type_code":"090100",
    "lng":113.92218,
    "lat":22.49675,
    "facility_type":"hospital",
    "business_period":"",
    "open_time":null,
    "close_time":null,
    "is_24h":false,
    "night_ratio":0.2,
    "night_service":true,
    "tel":"0755-21606999",
    "adcode":"440305",
    "pcode":"440000",
    "citycode":"0755",
    "source":"amap"
  },
  {
    "name":"深圳恒生医院",
    "address":"银田路20号",
    "type":"医疗保健服务;综合医院;综合医院",
    "type_code":"090100",
    "lng":113.851793,
    "lat":22.576415,
    "facility_type":"hospital",
    "business_period":"",
    "open_time":null,
    "close_time":null,
    "is_24h":false,
    "night_ratio":0.2,
    "night_service":true,
    "tel":"0755-27791111",
    "adcode":"440306",
    "pcode":"440000",
    "citycode":"0755",
    "source":"amap"
  },
  {
    "name":"深圳市南山妇幼保健院",
    "address":"湾厦路1号(东角头地铁站D口步行110米)",
    "type":"医疗保健服务;综合医院;三级甲等医院",
    "type_code":"090101",
    "lng":113.930351,
    "lat":22.487406,
    "facility_type":"hospital",
    "business_period":"",
    "open_time":null,
    "close_time":null,
    "is_24h":false,
    "night_ratio":0.2,
    "night_service":true,
    "tel":"0755-26566646",
    "adcode":"440305",
    "pcode":"440000",
    "citycode":"0755",
    "source":"amap"
  },
  {
    "name":"深圳禾正医院",
    "address":"龙苑路16号",
    "type":"医疗保健服务;综合医院;综合医院",
    "type_code":"090100",
    "lng":113.986312,
    "lat":22.56243,
    "facility_type":"hospital",
    "business_period":"",
    "open_time":null,
    "close_time":null,
    "is_24h":false,
    "night_ratio":0.2,
    "night_service":true,
    "tel":"4001120333",
    "adcode":"440305",
    "pcode":"440000",
    "citycode":"0755",
    "source":"amap"
  },
  {
    "name":"宝安纯中医治疗医院",
    "address":"来安路99号",
    "type":"医疗保健服务;综合医院;综合医院",
    "type_code":"090100",
    "lng":113.870977,
    "lat":22.606115,
    "facility_type":"hospital",
    "business_period":"",
    "open_time":null,
    "close_time":null,
    "is_24h":false,
    "night_ratio":0.2,
    "night_service":true,
    "tel":"0755-23288773",
    "adcode":"440306",
    "pcode":"440000",
    "citycode":"0755",
    "source":"amap"
  },
  {
    "name":"深圳市南山区医疗集团总部田厦社区健康服务中心",
    "address":"南新路2030-14号",
    "type":"医疗保健服务;综合医院;卫生院",
    "type_code":"090102",
    "lng":113.918825,
    "lat":22.528975,
    "facility_type":"hospital",
    "business_period":"",
    "open_time":null,
    "close_time":null,
    "is_24h":false,
    "night_ratio":0.2,
    "night_service":true,
    "tel":"0755-26460646",
    "adcode":"440305",
    "pcode":"440000",
    "citycode":"0755",
    "source":"amap"
  },
  {
    "name":"深圳华侨城医院",
    "address":"华侨城香山东街10号(侨城北地铁站B口步行160米)",
    "type":"医疗保健服务;综合医院;综合医院",
    "type_code":"090100",
    "lng":113.990372,
    "lat":22.542019,
    "facility_type":"hospital",
    "business_period":"",
    "open_time":null,
    "close_time":null,
    "is_24h":false,
    "night_ratio":0.2,
    "night_service":true,
    "tel":"0755-26600223;0755-26900737;0755-26925881",
    "adcode":"440305",
    "pcode":"440000",
    "citycode":"0755",
    "source":"amap"
  },
  {
    "name":"香港大学深圳医院门诊部",
    "address":"海园一路1号香港大学深圳医院内",
    "type":"医疗保健服务;综合医院;三级甲等医院",
    "type_code":"090101",
    "lng":113.995173,
    "lat":22.525687,
    "facility_type":"hospital",
    "business_period":"",
    "open_time":null,
    "close_time":null,
    "is_24h":false,
    "night_ratio":0.2,
    "night_service":true,
    "tel":[

    ],
    "adcode":"440304",
    "pcode":"440000",
    "citycode":"0755",
    "source":"amap"
  },
  {
    "name":"深圳市宝安人民医院(集团)建安院区",
    "address":"创业二路4号(灵芝地铁站F口步行470米)",
    "type":"医疗保健服务;综合医院;综合医院",
    "type_code":"090100",
    "lng":113.901035,
    "lat":22.565396,
    "facility_type":"hospital",
    "business_period":"",
    "open_time":null,
    "close_time":null,
    "is_24h":false,
    "night_ratio":0.2,
    "night_service":true,
    "tel":[

    ],
    "adcode":"440306",
    "pcode":"440000",
    "citycode":"0755",
    "source":"amap"
  },
  {
    "name":"深圳沙河医院",
    "address":"沙河街32号(白石洲地铁站A口步行290米)",
    "type":"医疗保健服务;综合医院;综合医院",
    "type_code":"090100",
    "lng":113.969237,
    "lat":22.541468,
    "facility_type":"hospital",
    "business_period":"",
    "open_time":null,
    "close_time":null,
    "is_24h":false,
    "night_ratio":0.2,
    "night_service":true,
    "tel":"0755-86658535;0755-86658948",
    "adcode":"440305",
    "pcode":"440000",
    "citycode":"0755",
    "source":"amap"
  },
  {
    "name":"香港大学深圳医院急诊科",
    "address":"海园一路1号香港大学深圳医院",
    "type":"医疗保健服务;综合医院;三级甲等医院",
    "type_code":"090101",
    "lng":113.995124,
    "lat":22.525517,
    "facility_type":"hospital",
    "business_period":"",
    "open_time":null,
    "close_time":null,
    "is_24h":false,
    "night_ratio":0.2,
    "night_service":true,
    "tel":[

    ],
    "adcode":"440304",
    "pcode":"440000",
    "citycode":"0755",
    "source":"amap"
  },
  {
    "name":"深圳大学总医院门诊部",
    "address":"桃源街道塘朗社区学苑大道1298号深圳大学总医院",
    "type":"医疗保健服务;综合医院;综合医院",
    "type_code":"090100",
    "lng":113.987615,
    "lat":22.594352,
    "facility_type":"hospital",
    "business_period":"",
    "open_time":null,
    "close_time":null,
    "is_24h":false,
    "night_ratio":0.2,
    "night_service":true,
    "tel":"0755-21839888",
    "adcode":"440305",
    "pcode":"440000",
    "citycode":"0755",
    "source":"amap"
  },
  {
    "name":"深圳市宝安人民医院门诊楼",
    "address":"宝城龙井二路118号深圳市宝安人民医院内",
    "type":"医疗保健服务;综合医院;三级甲等医院",
    "type_code":"090101",
    "lng":113.914745,
    "lat":22.561702,
    "facility_type":"hospital",
    "business_period":"",
    "open_time":null,
    "close_time":null,
    "is_24h":false,
    "night_ratio":0.2,
    "night_service":true,
    "tel":"0755-27788311",
    "adcode":"440306",
    "pcode":"440000",
    "citycode":"0755",
    "source":"amap"
  },
  {
    "name":"深圳市宝安中医院门诊",
    "address":"裕安二路25号深圳市宝安中医院内",
    "type":"医疗保健服务;综合医院;三级甲等医院",
    "type_code":"090101",
    "lng":113.899291,
    "lat":22.571656,
    "facility_type":"hospital",
    "business_period":"",
    "open_time":null,
    "close_time":null,
    "is_24h":false,
    "night_ratio":0.2,
    "night_service":true,
    "tel":[

    ],
    "adcode":"440306",
    "pcode":"440000",
    "citycode":"0755",
    "source":"amap"
  },
  {
    "name":"深圳市宝安中医院(集团)西院区",
    "address":"文汇一街与裕安二路交叉口西80米",
    "type":"医疗保健服务;综合医院;三级甲等医院",
    "type_code":"090101",
    "lng":113.898469,
    "lat":22.571263,
    "facility_type":"hospital",
    "business_period":"",
    "open_time":null,
    "close_time":null,
    "is_24h":false,
    "night_ratio":0.2,
    "night_service":true,
    "tel":[

    ],
    "adcode":"440306",
    "pcode":"440000",
    "citycode":"0755",
    "source":"amap"
  },
  {
    "name":"南方医科大学深圳医院住院部",
    "address":"新湖路13号南方医科大学深圳医院",
    "type":"医疗保健服务;综合医院;三级甲等医院",
    "type_code":"090101",
    "lng":113.895886,
    "lat":22.543477,
    "facility_type":"hospital",
    "business_period":"",
    "open_time":null,
    "close_time":null,
    "is_24h":false,
    "night_ratio":0.2,
    "night_service":true,
    "tel":"0755-23329999",
    "adcode":"440306",
    "pcode":"440000",
    "citycode":"0755",
    "source":"amap"
  },
  {
    "name":"深圳市宝安区中心医院航城社区医院",
    "address":"航城街道黄田社区凯成二路村内工业区17号",
    "type":"医疗保健服务;综合医院;卫生院",
    "type_code":"090102",
    "lng":113.84429,
    "lat":22.629986,
    "facility_type":"hospital",
    "business_period":"",
    "open_time":null,
    "close_time":null,
    "is_24h":false,
    "night_ratio":0.2,
    "night_service":true,
    "tel":"0755-29928616",
    "adcode":"440306",
    "pcode":"440000",
    "citycode":"0755",
    "source":"amap"
  },
  {
    "name":"深圳市宝安区中心医院福中福社区健康服务中心",
    "address":"西乡宝源路1009号广兴源互联网基地A区6栋101",
    "type":"医疗保健服务;综合医院;卫生院",
    "type_code":"090102",
    "lng":113.871241,
    "lat":22.562914,
    "facility_type":"hospital",
    "business_period":"",
    "open_time":null,
    "close_time":null,
    "is_24h":false,
    "night_ratio":0.2,
    "night_service":true,
    "tel":"0755-29957666",
    "adcode":"440306",
    "pcode":"440000",
    "citycode":"0755",
    "source":"amap"
  },
  {
    "name":"深圳市南山区医疗集团总部西丽社区健康服务中心",
    "address":"西丽沙河西路3230号上沙河大厦",
    "type":"医疗保健服务;综合医院;卫生院",
    "type_code":"090102",
    "lng":113.954615,
    "lat":22.577516,
    "facility_type":"hospital",
    "business_period":"",
    "open_time":null,
    "close_time":null,
    "is_24h":false,
    "night_ratio":0.2,
    "night_service":true,
    "tel":"0755-26620097;0755-26703457",
    "adcode":"440305",
    "pcode":"440000",
    "citycode":"0755",
    "source":"amap"
  },
  {
    "name":"深圳市宝安中医院(集团)东院区",
    "address":"裕安二路25号深圳市宝安区中医院",
    "type":"医疗保健服务;综合医院;三级甲等医院",
    "type_code":"090101",
    "lng":113.899119,
    "lat":22.571781,
    "facility_type":"hospital",
    "business_period":"",
    "open_time":null,
    "close_time":null,
    "is_24h":false,
    "night_ratio":0.2,
    "night_service":true,
    "tel":"0755-27816853;0755-29629333",
    "adcode":"440306",
    "pcode":"440000",
    "citycode":"0755",
    "source":"amap"
  },
  {
    "name":"深圳招商力宝太子湾医院",
    "address":"望海路1006号太子湾医院",
    "type":"医疗保健服务;综合医院;综合医院",
    "type_code":"090100",
    "lng":113.909658,
    "lat":22.474378,
    "facility_type":"hospital",
    "business_period":"",
    "open_time":null,
    "close_time":null,
    "is_24h":false,
    "night_ratio":0.2,
    "night_service":true,
    "tel":[

    ],
    "adcode":"440305",
    "pcode":"440000",
    "citycode":"0755",
    "source":"amap"
  },
  {
    "name":"深圳市宝安中医院(集团)西院区门诊楼",
    "address":"裕安二路25号深圳市宝安中医院(集团)",
    "type":"医疗保健服务;综合医院;三级甲等医院",
    "type_code":"090101",
    "lng":113.89871,
    "lat":22.571107,
    "facility_type":"hospital",
    "business_period":"",
    "open_time":null,
    "close_time":null,
    "is_24h":false,
    "night_ratio":0.2,
    "night_service":true,
    "tel":[

    ],
    "adcode":"440306",
    "pcode":"440000",
    "citycode":"0755",
    "source":"amap"
  },
  {
    "name":"宝安区中心医院-健康体检中心",
    "address":"宝民二路新城广场大厦2层",
    "type":"医疗保健服务;综合医院;综合医院",
    "type_code":"090100",
    "lng":113.88163,
    "lat":22.580408,
    "facility_type":"hospital",
    "business_period":"",
    "open_time":null,
    "close_time":null,
    "is_24h":false,
    "night_ratio":0.2,
    "night_service":true,
    "tel":"0755-27693051;4000017505",
    "adcode":"440306",
    "pcode":"440000",
    "citycode":"0755",
    "source":"amap"
  },
  {
    "name":"深圳五洲中医院体检中心",
    "address":"西乡街道固兴社区固兴路68号深圳五洲中医院",
    "type":"医疗保健服务;综合医院;综合医院",
    "type_code":"090100",
    "lng":113.852697,
    "lat":22.605152,
    "facility_type":"hospital",
    "business_period":"",
    "open_time":null,
    "close_time":null,
    "is_24h":false,
    "night_ratio":0.2,
    "night_service":true,
    "tel":"18938072250",
    "adcode":"440306",
    "pcode":"440000",
    "citycode":"0755",
    "source":"amap"
  },
  {
    "name":"深圳市宝安中医院(集团)西院区扁鹊楼",
    "address":"裕安二路25号深圳市宝安区中医院东院区扁鹊楼",
    "type":"医疗保健服务;综合医院;三级甲等医院",
    "type_code":"090101",
    "lng":113.898779,
    "lat":22.570933,
    "facility_type":"hospital",
    "business_period":"",
    "open_time":null,
    "close_time":null,
    "is_24h":false,
    "night_ratio":0.2,
    "night_service":true,
    "tel":"0755-29629333",
    "adcode":"440306",
    "pcode":"440000",
    "citycode":"0755",
    "source":"amap"
  },
  {
    "name":"深圳市宝安区人民医院大浪社区健康服务中心",
    "address":"创业二路266号(洪浪北地铁站B口步行80米)",
    "type":"医疗保健服务;综合医院;卫生院",
    "type_code":"090102",
    "lng":113.911605,
    "lat":22.574985,
    "facility_type":"hospital",
    "business_period":"",
    "open_time":null,
    "close_time":null,
    "is_24h":false,
    "night_ratio":0.2,
    "night_service":true,
    "tel":"0755-27884372;0755-27884414",
    "adcode":"440306",
    "pcode":"440000",
    "citycode":"0755",
    "source":"amap"
  },
  {
    "name":"深圳市宝安中医院(集团)华佗楼",
    "address":"裕安二路25号深圳市宝安中医院(集团)",
    "type":"医疗保健服务;综合医院;三级甲等医院",
    "type_code":"090101",
    "lng":113.899728,
    "lat":22.572215,
    "facility_type":"hospital",
    "business_period":"",
    "open_time":null,
    "close_time":null,
    "is_24h":false,
    "night_ratio":0.2,
    "night_service":true,
    "tel":"0755-29629333",
    "adcode":"440306",
    "pcode":"440000",
    "citycode":"0755",
    "source":"amap"
  },
  {
    "name":"香港大学深圳医院体检中心",
    "address":"海园一路1号香港大学深圳医院",
    "type":"医疗保健服务;综合医院;三级甲等医院",
    "type_code":"090101",
    "lng":113.996705,
    "lat":22.526372,
    "facility_type":"hospital",
    "business_period":"",
    "open_time":null,
    "close_time":null,
    "is_24h":false,
    "night_ratio":0.2,
    "night_service":true,
    "tel":[

    ],
    "adcode":"440304",
    "pcode":"440000",
    "citycode":"0755",
    "source":"amap"
  },
  {
    "name":"宝安区中医院(集团)凯旋社区健康服务中心",
    "address":"宝安大道金泓凯旋城一期4栋117号",
    "type":"医疗保健服务;综合医院;卫生院",
    "type_code":"090102",
    "lng":113.899325,
    "lat":22.549497,
    "facility_type":"hospital",
    "business_period":"",
    "open_time":null,
    "close_time":null,
    "is_24h":false,
    "night_ratio":0.2,
    "night_service":true,
    "tel":"0755-29113998;0755-29636868",
    "adcode":"440306",
    "pcode":"440000",
    "citycode":"0755",
    "source":"amap"
  },
  {
    "name":"深圳市宝安区中心医院固戍社区健康服务中心",
    "address":"固戍一路374号",
    "type":"医疗保健服务;综合医院;卫生院",
    "type_code":"090102",
    "lng":113.848369,
    "lat":22.596779,
    "facility_type":"hospital",
    "business_period":"",
    "open_time":null,
    "close_time":null,
    "is_24h":false,
    "night_ratio":0.2,
    "night_service":true,
    "tel":"0755-27488824",
    "adcode":"440306",
    "pcode":"440000",
    "citycode":"0755",
    "source":"amap"
  },
  {
    "name":"香港大学深圳医院科教管理楼",
    "address":"海园一路1号香港大学深圳医院",
    "type":"医疗保健服务;综合医院;三级甲等医院",
    "type_code":"090101",
    "lng":113.994722,
    "lat":22.526455,
    "facility_type":"hospital",
    "business_period":"",
    "open_time":null,
    "close_time":null,
    "is_24h":false,
    "night_ratio":0.2,
    "night_service":true,
    "tel":[

    ],
    "adcode":"440304",
    "pcode":"440000",
    "citycode":"0755",
    "source":"amap"
  },
  {
    "name":"深圳市宝安区中心医院流塘社区健康服务中心",
    "address":"西乡街道流塘社区建安路与宝汇路交界处流塘置地大厦裙楼配套01层18号房",
    "type":"医疗保健服务;综合医院;卫生院",
    "type_code":"090102",
    "lng":113.888104,
    "lat":22.57822,
    "facility_type":"hospital",
    "business_period":"",
    "open_time":null,
    "close_time":null,
    "is_24h":false,
    "night_ratio":0.2,
    "night_service":true,
    "tel":"0755-29370256",
    "adcode":"440306",
    "pcode":"440000",
    "citycode":"0755",
    "source":"amap"
  },
  {
    "name":"深圳市宝安区人民医院布心社区健康服务中心",
    "address":[

    ],
    "type":"医疗保健服务;综合医院;卫生院",
    "type_code":"090102",
    "lng":113.894335,
    "lat":22.586394,
    "facility_type":"hospital",
    "business_period":"",
    "open_time":null,
    "close_time":null,
    "is_24h":false,
    "night_ratio":0.2,
    "night_service":true,
    "tel":"0755-27829064",
    "adcode":"440306",
    "pcode":"440000",
    "citycode":"0755",
    "source":"amap"
  },
  {
    "name":"宝安区人民医院坪洲社区健康服务中心",
    "address":"海城路271号",
    "type":"医疗保健服务;综合医院;卫生院",
    "type_code":"090102",
    "lng":113.863638,
    "lat":22.561068,
    "facility_type":"hospital",
    "business_period":"",
    "open_time":null,
    "close_time":null,
    "is_24h":false,
    "night_ratio":0.2,
    "night_service":true,
    "tel":"0755-23056512",
    "adcode":"440306",
    "pcode":"440000",
    "citycode":"0755",
    "source":"amap"
  },
  {
    "name":"深圳恒生医院门诊楼",
    "address":"银田路20号深圳恒生医院内",
    "type":"医疗保健服务;综合医院;综合医院",
    "type_code":"090100",
    "lng":113.852812,
    "lat":22.576469,
    "facility_type":"hospital",
    "business_period":"",
    "open_time":null,
    "close_time":null,
    "is_24h":false,
    "night_ratio":0.2,
    "night_service":true,
    "tel":"0755-27791111",
    "adcode":"440306",
    "pcode":"440000",
    "citycode":"0755",
    "source":"amap"
  },
  {
    "name":"深圳南海中医医院",
    "address":"前海路雷圳碧榕湾海景花园东区商业1-3楼",
    "type":"医疗保健服务;综合医院;综合医院",
    "type_code":"090100",
    "lng":113.90535,
    "lat":22.510947,
    "facility_type":"hospital",
    "business_period":"",
    "open_time":null,
    "close_time":null,
    "is_24h":false,
    "night_ratio":0.2,
    "night_service":true,
    "tel":"0755-26920353",
    "adcode":"440305",
    "pcode":"440000",
    "citycode":"0755",
    "source":"amap"
  },
  {
    "name":"深圳市宝安人民医院体检中心",
    "address":"龙井二路118号",
    "type":"医疗保健服务;综合医院;三级甲等医院",
    "type_code":"090101",
    "lng":113.914676,
    "lat":22.561802,
    "facility_type":"hospital",
    "business_period":"",
    "open_time":null,
    "close_time":null,
    "is_24h":false,
    "night_ratio":0.2,
    "night_service":true,
    "tel":"13659404906",
    "adcode":"440306",
    "pcode":"440000",
    "citycode":"0755",
    "source":"amap"
  },
  {
    "name":"深圳市蛇口人民医院门诊部",
    "address":"工业七路36号深圳市蛇口人民医院内",
    "type":"医疗保健服务;综合医院;综合医院",
    "type_code":"090100",
    "lng":113.921663,
    "lat":22.496377,
    "facility_type":"hospital",
    "business_period":"",
    "open_time":null,
    "close_time":null,
    "is_24h":false,
    "night_ratio":0.2,
    "night_service":true,
    "tel":[

    ],
    "adcode":"440305",
    "pcode":"440000",
    "citycode":"0755",
    "source":"amap"
  },
  {
    "name":"深圳奥亚体检中心(保利分院)",
    "address":"粤海街道海珠社区南海大道2706号保利大厦201.301",
    "type":"医疗保健服务;综合医院;综合医院",
    "type_code":"090100",
    "lng":113.927804,
    "lat":22.515439,
    "facility_type":"hospital",
    "business_period":"",
    "open_time":null,
    "close_time":null,
    "is_24h":false,
    "night_ratio":0.2,
    "night_service":true,
    "tel":"0755-36886645;15986677716",
    "adcode":"440305",
    "pcode":"440000",
    "citycode":"0755",
    "source":"amap"
  },
  {
    "name":"深圳市宝安区中心医院三围社区健康服务站",
    "address":"果园路20-1号",
    "type":"医疗保健服务;综合医院;卫生院",
    "type_code":"090102",
    "lng":113.846673,
    "lat":22.613124,
    "facility_type":"hospital",
    "business_period":"",
    "open_time":null,
    "close_time":null,
    "is_24h":false,
    "night_ratio":0.2,
    "night_service":true,
    "tel":"0755-27486907",
    "adcode":"440306",
    "pcode":"440000",
    "citycode":"0755",
    "source":"amap"
  },
  {
    "name":"马家龙社区健康服务中心",
    "address":"艺园路133号马家龙田厦集成电路与系统设计产学研大厦F1层",
    "type":"医疗保健服务;综合医院;卫生院|医疗保健服务;诊所;诊所",
    "type_code":"090102|090300",
    "lng":113.927639,
    "lat":22.549262,
    "facility_type":"hospital",
    "business_period":"",
    "open_time":null,
    "close_time":null,
    "is_24h":false,
    "night_ratio":0.2,
    "night_service":true,
    "tel":"0755-86223377",
    "adcode":"440305",
    "pcode":"440000",
    "citycode":"0755",
    "source":"amap"
  },
  {
    "name":"宝安中心医院臣田社区健康服务中心",
    "address":"臣田工业区宝民二路438号",
    "type":"医疗保健服务;综合医院;卫生院",
    "type_code":"090102",
    "lng":113.872796,
    "lat":22.593987,
    "facility_type":"hospital",
    "business_period":"",
    "open_time":null,
    "close_time":null,
    "is_24h":false,
    "night_ratio":0.2,
    "night_service":true,
    "tel":"0755-27936264",
    "adcode":"440306",
    "pcode":"440000",
    "citycode":"0755",
    "source":"amap"
  },
  {
    "name":"南山社区健康服务中心",
    "address":"南新路南山村内正巷8号兴南楼一、二层",
    "type":"医疗保健服务;综合医院;卫生院",
    "type_code":"090102",
    "lng":113.912987,
    "lat":22.513619,
    "facility_type":"hospital",
    "business_period":"",
    "open_time":null,
    "close_time":null,
    "is_24h":false,
    "night_ratio":0.2,
    "night_service":true,
    "tel":"0755-86251065",
    "adcode":"440305",
    "pcode":"440000",
    "citycode":"0755",
    "source":"amap"
  },
  {
    "name":"深圳市宝安区妇幼保健院",
    "address":"玉律路56号",
    "type":"医疗保健服务;专科医院;专科医院",
    "type_code":"090200",
    "lng":113.876734,
    "lat":22.561977,
    "facility_type":"clinic",
    "business_period":"",
    "open_time":null,
    "close_time":null,
    "is_24h":false,
    "night_ratio":0.05,
    "night_service":true,
    "tel":"0755-27812637;0755-27863999",
    "adcode":"440306",
    "pcode":"440000",
    "citycode":"0755",
    "source":"amap"
  },
  {
    "name":"中国医学科学院阜外医院深圳医院",
    "address":"朗山路12号",
    "type":"医疗保健服务;专科医院;专科医院",
    "type_code":"090200",
    "lng":113.947745,
    "lat":22.556935,
    "facility_type":"clinic",
    "business_period":"",
    "open_time":null,
    "close_time":null,
    "is_24h":false,
    "night_ratio":0.05,
    "night_service":true,
    "tel":"0755-82180028",
    "adcode":"440305",
    "pcode":"440000",
    "citycode":"0755",
    "source":"amap"
  },
  {
    "name":"深圳市福田区妇幼保健院(安托山院区)",
    "address":"安托山一路88号",
    "type":"医疗保健服务;专科医院;专科医院",
    "type_code":"090200",
    "lng":114.003209,
    "lat":22.54692,
    "facility_type":"clinic",
    "business_period":"",
    "open_time":null,
    "close_time":null,
    "is_24h":false,
    "night_ratio":0.05,
    "night_service":true,
    "tel":"0755-66835110",
    "adcode":"440304",
    "pcode":"440000",
    "citycode":"0755",
    "source":"amap"
  },
  {
    "name":"深圳鹏爱医疗美容医院",
    "address":"南山大道1122号(南山地铁站C口步行230米)",
    "type":"医疗保健服务;专科医院;整形美容",
    "type_code":"090201",
    "lng":113.923271,
    "lat":22.521494,
    "facility_type":"clinic",
    "business_period":"",
    "open_time":null,
    "close_time":null,
    "is_24h":false,
    "night_ratio":0.05,
    "night_service":true,
    "tel":"18682239726",
    "adcode":"440305",
    "pcode":"440000",
    "citycode":"0755",
    "source":"amap"
  },
  {
    "name":"深圳南油麦芽口腔门诊部(南山院区)",
    "address":"南山大道1153号天源大厦",
    "type":"医疗保健服务;专科医院;口腔医院",
    "type_code":"090202",
    "lng":113.921871,
    "lat":22.521879,
    "facility_type":"clinic",
    "business_period":"",
    "open_time":null,
    "close_time":null,
    "is_24h":false,
    "night_ratio":0.05,
    "night_service":true,
    "tel":"13049325348",
    "adcode":"440305",
    "pcode":"440000",
    "citycode":"0755",
    "source":"amap"
  },
  {
    "name":"深圳普瑞眼科医院",
    "address":"南头街道大汪社区桃园路10号新桃园大厦(1-14层)",
    "type":"医疗保健服务;专科医院;眼科医院",
    "type_code":"090203",
    "lng":113.925339,
    "lat":22.532997,
    "facility_type":"clinic",
    "business_period":"",
    "open_time":null,
    "close_time":null,
    "is_24h":false,
    "night_ratio":0.05,
    "night_service":true,
    "tel":"15338729709",
    "adcode":"440305",
    "pcode":"440000",
    "citycode":"0755",
    "source":"amap"
  },
  {
    "name":"深圳美中宜和妇产医院",
    "address":"南山街道南新路2059号1-6层整栋",
    "type":"医疗保健服务;专科医院;专科医院",
    "type_code":"090200",
    "lng":113.918759,
    "lat":22.526244,
    "facility_type":"clinic",
    "business_period":"",
    "open_time":null,
    "close_time":null,
    "is_24h":false,
    "night_ratio":0.05,
    "night_service":true,
    "tel":"0755-36886789",
    "adcode":"440305",
    "pcode":"440000",
    "citycode":"0755",
    "source":"amap"
  },
  {
    "name":"深圳宝中格伦菲尔口腔门诊部",
    "address":"新安街道海富社区46区洪福雅苑",
    "type":"医疗保健服务;专科医院;口腔医院",
    "type_code":"090202",
    "lng":113.893208,
    "lat":22.560102,
    "facility_type":"clinic",
    "business_period":"",
    "open_time":null,
    "close_time":null,
    "is_24h":false,
    "night_ratio":0.05,
    "night_service":true,
    "tel":"13008835269",
    "adcode":"440306",
    "pcode":"440000",
    "citycode":"0755",
    "source":"amap"
  },
  {
    "name":"深圳宝生妇产医院",
    "address":"新安街道上川社区35区黄金台小区10栋",
    "type":"医疗保健服务;专科医院;妇科医院",
    "type_code":"090209",
    "lng":113.895602,
    "lat":22.581012,
    "facility_type":"clinic",
    "business_period":"",
    "open_time":null,
    "close_time":null,
    "is_24h":false,
    "night_ratio":0.05,
    "night_service":true,
    "tel":"15818682729",
    "adcode":"440306",
    "pcode":"440000",
    "citycode":"0755",
    "source":"amap"
  },
  {
    "name":"深圳滨海爱尔眼科医院",
    "address":"粤海街道滨海社区滨海大道3368号广晟科创大厦1-12层",
    "type":"医疗保健服务;专科医院;眼科医院",
    "type_code":"090203",
    "lng":113.940163,
    "lat":22.522689,
    "facility_type":"clinic",
    "business_period":"",
    "open_time":null,
    "close_time":null,
    "is_24h":false,
    "night_ratio":0.05,
    "night_service":true,
    "tel":"4006609120",
    "adcode":"440305",
    "pcode":"440000",
    "citycode":"0755",
    "source":"amap"
  },
  {
    "name":"深圳同宝医院(妇科)",
    "address":"西乡街道乐群社区南沙新村西一巷7-9-11-13-15-17号",
    "type":"医疗保健服务;专科医院;妇科医院|医疗保健服务;专科医院;整形美容",
    "type_code":"090209|090201",
    "lng":113.871617,
    "lat":22.575325,
    "facility_type":"clinic",
    "business_period":"",
    "open_time":null,
    "close_time":null,
    "is_24h":false,
    "night_ratio":0.05,
    "night_service":true,
    "tel":"13342985326",
    "adcode":"440306",
    "pcode":"440000",
    "citycode":"0755",
    "source":"amap"
  },
  {
    "name":"深圳新安麦芽口腔门诊部(宝安院区)",
    "address":"新安街道前进一路90号二楼",
    "type":"医疗保健服务;专科医院;口腔医院",
    "type_code":"090202",
    "lng":113.904935,
    "lat":22.568786,
    "facility_type":"clinic",
    "business_period":"",
    "open_time":null,
    "close_time":null,
    "is_24h":false,
    "night_ratio":0.05,
    "night_service":true,
    "tel":"13049325348",
    "adcode":"440306",
    "pcode":"440000",
    "citycode":"0755",
    "source":"amap"
  },
  {
    "name":"深圳宝坪格伦菲尔口腔门诊部",
    "address":"西乡街道蚝业社区海城路235号海滨新村泰逸大厦F3-001-007",
    "type":"医疗保健服务;专科医院;口腔医院",
    "type_code":"090202",
    "lng":113.868125,
    "lat":22.564934,
    "facility_type":"clinic",
    "business_period":"",
    "open_time":null,
    "close_time":null,
    "is_24h":false,
    "night_ratio":0.05,
    "night_service":true,
    "tel":"13008835269",
    "adcode":"440306",
    "pcode":"440000",
    "citycode":"0755",
    "source":"amap"
  },
  {
    "name":"希玛眼科•港资医院(宝安总院)",
    "address":"新安街道灵芝园社区创业二路南侧都市翠海华苑1栋1061-2层",
    "type":"医疗保健服务;专科医院;眼科医院",
    "type_code":"090203",
    "lng":113.905534,
    "lat":22.569345,
    "facility_type":"clinic",
    "business_period":"",
    "open_time":null,
    "close_time":null,
    "is_24h":false,
    "night_ratio":0.05,
    "night_service":true,
    "tel":"18100295954",
    "adcode":"440306",
    "pcode":"440000",
    "citycode":"0755",
    "source":"amap"
  },
  {
    "name":"深圳宝城口腔门诊部",
    "address":"西乡街道乐群社区南沙新村西一巷1-3-5号一层二层三层四层",
    "type":"医疗保健服务;专科医院;口腔医院",
    "type_code":"090202",
    "lng":113.87226,
    "lat":22.574808,
    "facility_type":"clinic",
    "business_period":"",
    "open_time":null,
    "close_time":null,
    "is_24h":false,
    "night_ratio":0.05,
    "night_service":true,
    "tel":"0755-22225661",
    "adcode":"440306",
    "pcode":"440000",
    "citycode":"0755",
    "source":"amap"
  },
  {
    "name":"深圳肤康皮肤病专科门诊部",
    "address":"南新路23号满维大厦",
    "type":"医疗保健服务;专科医院;专科医院",
    "type_code":"090200",
    "lng":113.916669,
    "lat":22.516008,
    "facility_type":"clinic",
    "business_period":"",
    "open_time":null,
    "close_time":null,
    "is_24h":false,
    "night_ratio":0.05,
    "night_service":true,
    "tel":"13163760913;18122053652",
    "adcode":"440305",
    "pcode":"440000",
    "citycode":"0755",
    "source":"amap"
  },
  {
    "name":"深圳明森口腔·国际种植·正畸诊疗中心",
    "address":"南山街道学府社区南山大道2006号南航公司办公楼3层",
    "type":"医疗保健服务;专科医院;口腔医院",
    "type_code":"090202",
    "lng":113.924116,
    "lat":22.524955,
    "facility_type":"clinic",
    "business_period":"",
    "open_time":null,
    "close_time":null,
    "is_24h":false,
    "night_ratio":0.05,
    "night_service":true,
    "tel":"18138819251",
    "adcode":"440305",
    "pcode":"440000",
    "citycode":"0755",
    "source":"amap"
  },
  {
    "name":"深圳四达格伦菲尔口腔门诊部",
    "address":"四达大厦一楼(南油地铁站F1口步行170米)",
    "type":"医疗保健服务;专科医院;口腔医院",
    "type_code":"090202",
    "lng":113.925347,
    "lat":22.509953,
    "facility_type":"clinic",
    "business_period":"",
    "open_time":null,
    "close_time":null,
    "is_24h":false,
    "night_ratio":0.05,
    "night_service":true,
    "tel":"13008835269",
    "adcode":"440305",
    "pcode":"440000",
    "citycode":"0755",
    "source":"amap"
  },
  {
    "name":"深圳八大处医疗美容医院",
    "address":"粤海街道高新区社区高新南十道8号深圳湾科技生态园1栋裙楼31-1号复式铺",
    "type":"医疗保健服务;专科医院;整形美容",
    "type_code":"090201",
    "lng":113.953673,
    "lat":22.52748,
    "facility_type":"clinic",
    "business_period":"",
    "open_time":null,
    "close_time":null,
    "is_24h":false,
    "night_ratio":0.05,
    "night_service":true,
    "tel":"18681576963",
    "adcode":"440305",
    "pcode":"440000",
    "citycode":"0755",
    "source":"amap"
  },
  {
    "name":"深圳春天阳光医院",
    "address":"建安一路一巷1-9号天悦壹号玺苑205",
    "type":"医疗保健服务;专科医院;整形美容",
    "type_code":"090201",
    "lng":113.900567,
    "lat":22.568173,
    "facility_type":"clinic",
    "business_period":"",
    "open_time":null,
    "close_time":null,
    "is_24h":false,
    "night_ratio":0.05,
    "night_service":true,
    "tel":[

    ],
    "adcode":"440306",
    "pcode":"440000",
    "citycode":"0755",
    "source":"amap"
  },
  {
    "name":"深圳悦瞳眼科",
    "address":"粤海街道海珠社区海德一道88号中洲控股金融中心A栋16A",
    "type":"医疗保健服务;专科医院;眼科医院",
    "type_code":"090203",
    "lng":113.933406,
    "lat":22.517585,
    "facility_type":"clinic",
    "business_period":"",
    "open_time":null,
    "close_time":null,
    "is_24h":false,
    "night_ratio":0.05,
    "night_service":true,
    "tel":"13310865629",
    "adcode":"440305",
    "pcode":"440000",
    "citycode":"0755",
    "source":"amap"
  },
  {
    "name":"河山口腔连锁(宝安总店)",
    "address":"西乡街道龙珠社区富成路2-4号西秦宾馆二楼(西乡大门旁)",
    "type":"医疗保健服务;专科医院;口腔医院",
    "type_code":"090202",
    "lng":113.883657,
    "lat":22.576923,
    "facility_type":"clinic",
    "business_period":"",
    "open_time":null,
    "close_time":null,
    "is_24h":false,
    "night_ratio":0.05,
    "night_service":true,
    "tel":"0755-85254177",
    "adcode":"440306",
    "pcode":"440000",
    "citycode":"0755",
    "source":"amap"
  },
  {
    "name":"正夫口腔(中洲旗舰店)",
    "address":"粤海街道海德一道88号中洲控股金融中心A座第5层",
    "type":"医疗保健服务;专科医院;口腔医院",
    "type_code":"090202",
    "lng":113.933319,
    "lat":22.517571,
    "facility_type":"clinic",
    "business_period":"",
    "open_time":null,
    "close_time":null,
    "is_24h":false,
    "night_ratio":0.05,
    "night_service":true,
    "tel":"13392184225",
    "adcode":"440305",
    "pcode":"440000",
    "citycode":"0755",
    "source":"amap"
  },
  {
    "name":"深圳联合丽格医疗美容门诊部",
    "address":"粤海街道华彩天成居商场三楼",
    "type":"医疗保健服务;专科医院;整形美容",
    "type_code":"090201",
    "lng":113.929847,
    "lat":22.518659,
    "facility_type":"clinic",
    "business_period":"",
    "open_time":null,
    "close_time":null,
    "is_24h":false,
    "night_ratio":0.05,
    "night_service":true,
    "tel":"0755-89891818",
    "adcode":"440305",
    "pcode":"440000",
    "citycode":"0755",
    "source":"amap"
  },
  {
    "name":"深圳市眼科医院门诊",
    "address":"泽田路18号深圳市眼科医院内",
    "type":"医疗保健服务;专科医院;眼科医院",
    "type_code":"090203",
    "lng":114.014367,
    "lat":22.546077,
    "facility_type":"clinic",
    "business_period":"",
    "open_time":null,
    "close_time":null,
    "is_24h":false,
    "night_ratio":0.05,
    "night_service":true,
    "tel":"0755-23959600",
    "adcode":"440304",
    "pcode":"440000",
    "citycode":"0755",
    "source":"amap"
  },
  {
    "name":"小珂丽格医疗美容(宝安店)",
    "address":"Hop国际中心大厦25层2502室",
    "type":"医疗保健服务;专科医院;整形美容",
    "type_code":"090201",
    "lng":113.887556,
    "lat":22.550058,
    "facility_type":"clinic",
    "business_period":"",
    "open_time":null,
    "close_time":null,
    "is_24h":false,
    "night_ratio":0.05,
    "night_service":true,
    "tel":"18025357050",
    "adcode":"440306",
    "pcode":"440000",
    "citycode":"0755",
    "source":"amap"
  },
  {
    "name":"诺德齿科连锁(深圳总院)",
    "address":"粤海街道大冲社区深南大道9676号大冲商务中心(一期)2栋3号楼302",
    "type":"医疗保健服务;专科医院;口腔医院",
    "type_code":"090202",
    "lng":113.953097,
    "lat":22.541198,
    "facility_type":"clinic",
    "business_period":"",
    "open_time":null,
    "close_time":null,
    "is_24h":false,
    "night_ratio":0.05,
    "night_service":true,
    "tel":"0755-22740385",
    "adcode":"440305",
    "pcode":"440000",
    "citycode":"0755",
    "source":"amap"
  },
  {
    "name":"河山口腔连锁(固戍店)",
    "address":"西乡街道固兴社区万象新天商务楼A座",
    "type":"医疗保健服务;专科医院;口腔医院",
    "type_code":"090202",
    "lng":113.847846,
    "lat":22.601697,
    "facility_type":"clinic",
    "business_period":"",
    "open_time":null,
    "close_time":null,
    "is_24h":false,
    "night_ratio":0.05,
    "night_service":true,
    "tel":"0755-85254177",
    "adcode":"440306",
    "pcode":"440000",
    "citycode":"0755",
    "source":"amap"
  },
  {
    "name":"泰康拜博口腔(康乐店)",
    "address":"粤海街道白石路3939号怡化金融科技大厦3层301",
    "type":"医疗保健服务;专科医院;口腔医院",
    "type_code":"090202",
    "lng":113.936001,
    "lat":22.524416,
    "facility_type":"clinic",
    "business_period":"",
    "open_time":null,
    "close_time":null,
    "is_24h":false,
    "night_ratio":0.05,
    "night_service":true,
    "tel":"0755-82349067",
    "adcode":"440305",
    "pcode":"440000",
    "citycode":"0755",
    "source":"amap"
  },
  {
    "name":"深圳爱尔西柚眼科",
    "address":"高新南一道6号TCL大厦F2层",
    "type":"医疗保健服务;专科医院;眼科医院",
    "type_code":"090203",
    "lng":113.952597,
    "lat":22.539002,
    "facility_type":"clinic",
    "business_period":"",
    "open_time":null,
    "close_time":null,
    "is_24h":false,
    "night_ratio":0.05,
    "night_service":true,
    "tel":"17727907108",
    "adcode":"440305",
    "pcode":"440000",
    "citycode":"0755",
    "source":"amap"
  },
  {
    "name":"深圳美加美医疗美容门诊部",
    "address":"西乡街道宝安大道3220号",
    "type":"医疗保健服务;专科医院;整形美容",
    "type_code":"090201",
    "lng":113.870908,
    "lat":22.575976,
    "facility_type":"clinic",
    "business_period":"",
    "open_time":null,
    "close_time":null,
    "is_24h":false,
    "night_ratio":0.05,
    "night_service":true,
    "tel":"18128836180",
    "adcode":"440306",
    "pcode":"440000",
    "citycode":"0755",
    "source":"amap"
  },
  {
    "name":"深圳悦嘉丽医疗美容诊所",
    "address":"蛇口街道深圳湾社区岸湾三街5号吉祥龙花园s250s251s252s253",
    "type":"医疗保健服务;专科医院;整形美容",
    "type_code":"090201",
    "lng":113.939715,
    "lat":22.49735,
    "facility_type":"clinic",
    "business_period":"",
    "open_time":null,
    "close_time":null,
    "is_24h":false,
    "night_ratio":0.05,
    "night_service":true,
    "tel":"19926823527",
    "adcode":"440305",
    "pcode":"440000",
    "citycode":"0755",
    "source":"amap"
  },
  {
    "name":"深圳市宝安区妇幼保健院门诊楼",
    "address":"玉林路宝安区妇幼保健院中心区新院",
    "type":"医疗保健服务;专科医院;专科医院",
    "type_code":"090200",
    "lng":113.876916,
    "lat":22.561756,
    "facility_type":"clinic",
    "business_period":"",
    "open_time":null,
    "close_time":null,
    "is_24h":false,
    "night_ratio":0.05,
    "night_service":true,
    "tel":"0755-27863999",
    "adcode":"440306",
    "pcode":"440000",
    "citycode":"0755",
    "source":"amap"
  },
  {
    "name":"深圳佳美口腔(宝安门诊)",
    "address":"悦和路与新湖路交汇处天虹商场合正汇1层佳美口腔",
    "type":"医疗保健服务;专科医院;口腔医院",
    "type_code":"090202",
    "lng":113.862682,
    "lat":22.575954,
    "facility_type":"clinic",
    "business_period":"",
    "open_time":null,
    "close_time":null,
    "is_24h":false,
    "night_ratio":0.05,
    "night_service":true,
    "tel":"17724735837;18033411471;18927415433",
    "adcode":"440306",
    "pcode":"440000",
    "citycode":"0755",
    "source":"amap"
  },
  {
    "name":"小珂丽格医疗美容(南山店)",
    "address":"蛇口街道中心路卓越维港名苑(北区)4-7栋裙楼138、139",
    "type":"医疗保健服务;专科医院;整形美容",
    "type_code":"090201",
    "lng":113.940784,
    "lat":22.498658,
    "facility_type":"clinic",
    "business_period":"",
    "open_time":null,
    "close_time":null,
    "is_24h":false,
    "night_ratio":0.05,
    "night_service":true,
    "tel":"13714986056",
    "adcode":"440305",
    "pcode":"440000",
    "citycode":"0755",
    "source":"amap"
  },
  {
    "name":"希玛爱康健口腔(南山旗舰店)",
    "address":"招商街道沿山社区南海大道1123-5号",
    "type":"医疗保健服务;专科医院;口腔医院",
    "type_code":"090202",
    "lng":113.921142,
    "lat":22.500247,
    "facility_type":"clinic",
    "business_period":"",
    "open_time":null,
    "close_time":null,
    "is_24h":false,
    "night_ratio":0.05,
    "night_service":true,
    "tel":"0755-61302631",
    "adcode":"440305",
    "pcode":"440000",
    "citycode":"0755",
    "source":"amap"
  },
  {
    "name":"诺德齿科连锁(南山西丽分院)",
    "address":"桃源街道平山社区丽山路2号平山村平康苑201-202",
    "type":"医疗保健服务;专科医院;口腔医院",
    "type_code":"090202",
    "lng":113.965557,
    "lat":22.583695,
    "facility_type":"clinic",
    "business_period":"",
    "open_time":null,
    "close_time":null,
    "is_24h":false,
    "night_ratio":0.05,
    "night_service":true,
    "tel":"0755-22740385",
    "adcode":"440305",
    "pcode":"440000",
    "citycode":"0755",
    "source":"amap"
  },
  {
    "name":"慈恩齿科(富诚门诊部)",
    "address":"深南大道9680号大冲商务中心A栋31层3103(高新园地铁站B出口50米)",
    "type":"医疗保健服务;专科医院;口腔医院",
    "type_code":"090202",
    "lng":113.951589,
    "lat":22.541034,
    "facility_type":"clinic",
    "business_period":"",
    "open_time":null,
    "close_time":null,
    "is_24h":false,
    "night_ratio":0.05,
    "night_service":true,
    "tel":"0755-26607945;19928734980",
    "adcode":"440305",
    "pcode":"440000",
    "citycode":"0755",
    "source":"amap"
  },
  {
    "name":"深圳倍生植发(深圳总院)",
    "address":"粤海街道科技园文化广场三楼3A02",
    "type":"医疗保健服务;专科医院;整形美容",
    "type_code":"090201",
    "lng":113.943702,
    "lat":22.540892,
    "facility_type":"clinic",
    "business_period":"",
    "open_time":null,
    "close_time":null,
    "is_24h":false,
    "night_ratio":0.05,
    "night_service":true,
    "tel":"19925382158",
    "adcode":"440305",
    "pcode":"440000",
    "citycode":"0755",
    "source":"amap"
  },
  {
    "name":"正夫口腔(宝安旗舰店)",
    "address":"西乡街道新湖路圣淘沙骏园11栋商场301-B",
    "type":"医疗保健服务;专科医院;口腔医院",
    "type_code":"090202",
    "lng":113.863825,
    "lat":22.574002,
    "facility_type":"clinic",
    "business_period":"",
    "open_time":null,
    "close_time":null,
    "is_24h":false,
    "night_ratio":0.05,
    "night_service":true,
    "tel":"13392184225",
    "adcode":"440306",
    "pcode":"440000",
    "citycode":"0755",
    "source":"amap"
  },
  {
    "name":"友睦口腔连锁(南山欢乐海岸店)",
    "address":"沙河街道东方社区白石路东8号欢乐海岸购物中心L2-017-019",
    "type":"医疗保健服务;专科医院;口腔医院",
    "type_code":"090202",
    "lng":113.988865,
    "lat":22.525737,
    "facility_type":"clinic",
    "business_period":"",
    "open_time":null,
    "close_time":null,
    "is_24h":false,
    "night_ratio":0.05,
    "night_service":true,
    "tel":"18565774381",
    "adcode":"440305",
    "pcode":"440000",
    "citycode":"0755",
    "source":"amap"
  },
  {
    "name":"希玛爱康健口腔(南山书城店)",
    "address":"南光社区南海大道2287号海典居2275-C及裙楼二楼2035-2044号",
    "type":"医疗保健服务;专科医院;口腔医院",
    "type_code":"090202",
    "lng":113.927579,
    "lat":22.517742,
    "facility_type":"clinic",
    "business_period":"",
    "open_time":null,
    "close_time":null,
    "is_24h":false,
    "night_ratio":0.05,
    "night_service":true,
    "tel":"0755-61302631",
    "adcode":"440305",
    "pcode":"440000",
    "citycode":"0755",
    "source":"amap"
  },
  {
    "name":"正夫口腔(世界之窗旗舰店)",
    "address":"深南大道9030号沙河世纪假日广场A座201-207",
    "type":"医疗保健服务;专科医院;口腔医院",
    "type_code":"090202",
    "lng":113.973403,
    "lat":22.538273,
    "facility_type":"clinic",
    "business_period":"",
    "open_time":null,
    "close_time":null,
    "is_24h":false,
    "night_ratio":0.05,
    "night_service":true,
    "tel":"13392184225",
    "adcode":"440305",
    "pcode":"440000",
    "citycode":"0755",
    "source":"amap"
  },
  {
    "name":"安美聚光医疗美容(碧海湾院)",
    "address":"西乡街道盐田社区宝安大道4009金港华庭A096",
    "type":"医疗保健服务;专科医院;整形美容",
    "type_code":"090201",
    "lng":113.86119,
    "lat":22.582051,
    "facility_type":"clinic",
    "business_period":"",
    "open_time":null,
    "close_time":null,
    "is_24h":false,
    "night_ratio":0.05,
    "night_service":true,
    "tel":"18123983422",
    "adcode":"440306",
    "pcode":"440000",
    "citycode":"0755",
    "source":"amap"
  },
  {
    "name":"希玛爱康健口腔(南山海岸城店)",
    "address":"粤海街道海珠社区文心五路33号海岸大厦西座501-505",
    "type":"医疗保健服务;专科医院;口腔医院",
    "type_code":"090202",
    "lng":113.936584,
    "lat":22.518302,
    "facility_type":"clinic",
    "business_period":"",
    "open_time":null,
    "close_time":null,
    "is_24h":false,
    "night_ratio":0.05,
    "night_service":true,
    "tel":"0755-61302631",
    "adcode":"440305",
    "pcode":"440000",
    "citycode":"0755",
    "source":"amap"
  },
  {
    "name":"诺德齿科连锁(宝安新安分院)",
    "address":"新安街道龙井社区前进一路53号御景台2栋滕皇阁-101",
    "type":"医疗保健服务;专科医院;口腔医院",
    "type_code":"090202",
    "lng":113.911731,
    "lat":22.560981,
    "facility_type":"clinic",
    "business_period":"",
    "open_time":null,
    "close_time":null,
    "is_24h":false,
    "night_ratio":0.05,
    "night_service":true,
    "tel":"0755-22740385",
    "adcode":"440306",
    "pcode":"440000",
    "citycode":"0755",
    "source":"amap"
  },
  {
    "name":"卫佳康口腔博士种植矫正(泰华店)",
    "address":"西乡街道富华社区宝民二路128号12楼",
    "type":"医疗保健服务;专科医院;口腔医院",
    "type_code":"090202",
    "lng":113.881774,
    "lat":22.582254,
    "facility_type":"clinic",
    "business_period":"",
    "open_time":null,
    "close_time":null,
    "is_24h":false,
    "night_ratio":0.05,
    "night_service":true,
    "tel":"19926578539",
    "adcode":"440306",
    "pcode":"440000",
    "citycode":"0755",
    "source":"amap"
  },
  {
    "name":"深圳卓越阳光医疗美容诊所",
    "address":"蛇口街道深圳湾社区工业七路8号卓越维港花园北区142",
    "type":"医疗保健服务;专科医院;整形美容",
    "type_code":"090201",
    "lng":113.941017,
    "lat":22.49879,
    "facility_type":"clinic",
    "business_period":"",
    "open_time":null,
    "close_time":null,
    "is_24h":false,
    "night_ratio":0.05,
    "night_service":true,
    "tel":"13632987467",
    "adcode":"440305",
    "pcode":"440000",
    "citycode":"0755",
    "source":"amap"
  },
  {
    "name":"乐孚口腔连锁·种植矫正中心(裕安店)",
    "address":"新安街裕安居二路125号-5",
    "type":"医疗保健服务;专科医院;口腔医院",
    "type_code":"090202",
    "lng":113.905909,
    "lat":22.577065,
    "facility_type":"clinic",
    "business_period":"",
    "open_time":null,
    "close_time":null,
    "is_24h":false,
    "night_ratio":0.05,
    "night_service":true,
    "tel":"19620726440",
    "adcode":"440306",
    "pcode":"440000",
    "citycode":"0755",
    "source":"amap"
  },
  {
    "name":"友睦口腔连锁(南山华润城门诊)",
    "address":"铜鼓路39号大冲国际中心10楼",
    "type":"医疗保健服务;专科医院;口腔医院",
    "type_code":"090202",
    "lng":113.953571,
    "lat":22.542299,
    "facility_type":"clinic",
    "business_period":"",
    "open_time":null,
    "close_time":null,
    "is_24h":false,
    "night_ratio":0.05,
    "night_service":true,
    "tel":"18565774381",
    "adcode":"440305",
    "pcode":"440000",
    "citycode":"0755",
    "source":"amap"
  },
  {
    "name":"泰康拜博口腔(太古城店)",
    "address":"蛇口街道深圳湾社区中心路2233号宝能·allcity购物中心北区三楼",
    "type":"医疗保健服务;专科医院;口腔医院",
    "type_code":"090202",
    "lng":113.939521,
    "lat":22.500819,
    "facility_type":"clinic",
    "business_period":"",
    "open_time":null,
    "close_time":null,
    "is_24h":false,
    "night_ratio":0.05,
    "night_service":true,
    "tel":"0755-82349067",
    "adcode":"440305",
    "pcode":"440000",
    "citycode":"0755",
    "source":"amap"
  },
  {
    "name":"深圳奥觅诊所",
    "address":"万商大厦东南门旁(南山书城地铁站C口步行470米)",
    "type":"医疗保健服务;专科医院;整形美容|医疗保健服务;诊所;诊所",
    "type_code":"090201|090300",
    "lng":113.931125,
    "lat":22.52139,
    "facility_type":"clinic",
    "business_period":"",
    "open_time":null,
    "close_time":null,
    "is_24h":false,
    "night_ratio":0.05,
    "night_service":true,
    "tel":"0755-22672452",
    "adcode":"440305",
    "pcode":"440000",
    "citycode":"0755",
    "source":"amap"
  },
  {
    "name":"深圳花漾医疗美容旗舰店",
    "address":"南头街道桃园路港湾丽都105号铺(大新地铁站C1口20米)",
    "type":"医疗保健服务;专科医院;整形美容",
    "type_code":"090201",
    "lng":113.913835,
    "lat":22.531882,
    "facility_type":"clinic",
    "business_period":"",
    "open_time":null,
    "close_time":null,
    "is_24h":false,
    "night_ratio":0.05,
    "night_service":true,
    "tel":"0755-86372076;15361422556",
    "adcode":"440305",
    "pcode":"440000",
    "citycode":"0755",
    "source":"amap"
  },
  {
    "name":"友睦口腔连锁(南山天利门诊店)",
    "address":"海德三道199号天利中央商务广场A座19层",
    "type":"医疗保健服务;专科医院;口腔医院",
    "type_code":"090202",
    "lng":113.933858,
    "lat":22.518619,
    "facility_type":"clinic",
    "business_period":"",
    "open_time":null,
    "close_time":null,
    "is_24h":false,
    "night_ratio":0.05,
    "night_service":true,
    "tel":"18565774381",
    "adcode":"440305",
    "pcode":"440000",
    "citycode":"0755",
    "source":"amap"
  },
  {
    "name":"瑞尔齿科(欢乐海岸诊所)",
    "address":"白石路2021号欢乐海岸蓝楹国际商务中心7层701-706单元",
    "type":"医疗保健服务;专科医院;口腔医院",
    "type_code":"090202",
    "lng":113.990125,
    "lat":22.526125,
    "facility_type":"clinic",
    "business_period":"",
    "open_time":null,
    "close_time":null,
    "is_24h":false,
    "night_ratio":0.05,
    "night_service":true,
    "tel":"0755-86526381",
    "adcode":"440305",
    "pcode":"440000",
    "citycode":"0755",
    "source":"amap"
  },
  {
    "name":"正夫口腔(桃源居旗舰店)",
    "address":"西乡街道桃园社区桃源居二区6栋111-113",
    "type":"医疗保健服务;专科医院;口腔医院",
    "type_code":"090202",
    "lng":113.861009,
    "lat":22.61336,
    "facility_type":"clinic",
    "business_period":"",
    "open_time":null,
    "close_time":null,
    "is_24h":false,
    "night_ratio":0.05,
    "night_service":true,
    "tel":"13392184225",
    "adcode":"440306",
    "pcode":"440000",
    "citycode":"0755",
    "source":"amap"
  },
  {
    "name":"深圳蒳美迩医疗美容",
    "address":"粤海街道后海滨卓越维港名苑(南区)9-13栋裙楼1-04",
    "type":"医疗保健服务;专科医院;整形美容",
    "type_code":"090201",
    "lng":113.940956,
    "lat":22.495506,
    "facility_type":"clinic",
    "business_period":"",
    "open_time":null,
    "close_time":null,
    "is_24h":false,
    "night_ratio":0.05,
    "night_service":true,
    "tel":"0755-25551115;19129918127",
    "adcode":"440305",
    "pcode":"440000",
    "citycode":"0755",
    "source":"amap"
  },
  {
    "name":"深圳正康骨科医院",
    "address":"前进二路42号(流塘地铁站A口旁)",
    "type":"医疗保健服务;专科医院;骨科医院",
    "type_code":"090206",
    "lng":113.889813,
    "lat":22.583802,
    "facility_type":"clinic",
    "business_period":"",
    "open_time":null,
    "close_time":null,
    "is_24h":false,
    "night_ratio":0.05,
    "night_service":true,
    "tel":"0755-61887120",
    "adcode":"440306",
    "pcode":"440000",
    "citycode":"0755",
    "source":"amap"
  },
  {
    "name":"深圳市宝安中医院(集团)景岳楼",
    "address":"裕安二路25号深圳市宝安中医院(集团)",
    "type":"医疗保健服务;综合医院;三级甲等医院",
    "type_code":"090101",
    "lng":113.898627,
    "lat":22.571146,
    "facility_type":"pharmacy",
    "business_period":"",
    "open_time":null,
    "close_time":null,
    "is_24h":false,
    "night_ratio":0.3,
    "night_service":true,
    "tel":[

    ],
    "adcode":"440306",
    "pcode":"440000",
    "citycode":"0755",
    "source":"amap"
  },
  {
    "name":"南方医科大学深圳医院行政楼",
    "address":"新湖路13号(新安地铁站E口步行470米)",
    "type":"医疗保健服务;综合医院;三级甲等医院",
    "type_code":"090101",
    "lng":113.897204,
    "lat":22.543565,
    "facility_type":"pharmacy",
    "business_period":"",
    "open_time":null,
    "close_time":null,
    "is_24h":false,
    "night_ratio":0.3,
    "night_service":true,
    "tel":[

    ],
    "adcode":"440306",
    "pcode":"440000",
    "citycode":"0755",
    "source":"amap"
  },
  {
    "name":"香港大学深圳医院国际医疗中心",
    "address":"沙头街道海园一路1号香港大学深圳医院",
    "type":"医疗保健服务;综合医院;三级甲等医院",
    "type_code":"090101",
    "lng":113.99498,
    "lat":22.524572,
    "facility_type":"pharmacy",
    "business_period":"",
    "open_time":null,
    "close_time":null,
    "is_24h":false,
    "night_ratio":0.3,
    "night_service":true,
    "tel":[

    ],
    "adcode":"440304",
    "pcode":"440000",
    "citycode":"0755",
    "source":"amap"
  },
  {
    "name":"深圳市南山区中医院大冲中医门诊部",
    "address":"粤海街道大冲新城花园一栋",
    "type":"医疗保健服务;综合医院;三级甲等医院",
    "type_code":"090101",
    "lng":113.952848,
    "lat":22.542489,
    "facility_type":"pharmacy",
    "business_period":"",
    "open_time":null,
    "close_time":null,
    "is_24h":false,
    "night_ratio":0.3,
    "night_service":true,
    "tel":"0755-26888650",
    "adcode":"440305",
    "pcode":"440000",
    "citycode":"0755",
    "source":"amap"
  },
  {
    "name":"深圳市南山区人民医院急诊",
    "address":"桃园路89号深圳市第六人民医院南山医院内",
    "type":"医疗保健服务;综合医院;三级甲等医院",
    "type_code":"090101",
    "lng":113.924122,
    "lat":22.529705,
    "facility_type":"pharmacy",
    "business_period":"",
    "open_time":null,
    "close_time":null,
    "is_24h":false,
    "night_ratio":0.3,
    "night_service":true,
    "tel":"0755-26553111;0755-26565339",
    "adcode":"440305",
    "pcode":"440000",
    "citycode":"0755",
    "source":"amap"
  },
  {
    "name":"深圳市宝安中医院(集团)东院区精诚楼",
    "address":"裕安二路25号深圳市宝安区中医院东院区",
    "type":"医疗保健服务;综合医院;三级甲等医院",
    "type_code":"090101",
    "lng":113.899699,
    "lat":22.572245,
    "facility_type":"pharmacy",
    "business_period":"",
    "open_time":null,
    "close_time":null,
    "is_24h":false,
    "night_ratio":0.3,
    "night_service":true,
    "tel":[

    ],
    "adcode":"440306",
    "pcode":"440000",
    "citycode":"0755",
    "source":"amap"
  },
  {
    "name":"深圳市南山区人民医院-行政综合楼",
    "address":"华中科技大学协和深圳医院科教行政楼B座",
    "type":"医疗保健服务;综合医院;三级甲等医院",
    "type_code":"090101",
    "lng":113.921144,
    "lat":22.531002,
    "facility_type":"pharmacy",
    "business_period":"",
    "open_time":null,
    "close_time":null,
    "is_24h":false,
    "night_ratio":0.3,
    "night_service":true,
    "tel":"13922807997",
    "adcode":"440305",
    "pcode":"440000",
    "citycode":"0755",
    "source":"amap"
  },
  {
    "name":"香港大学深圳医院门诊医技楼",
    "address":"海园一路1号(深圳湾公园地铁站D1口步行460米)",
    "type":"医疗保健服务;综合医院;三级甲等医院",
    "type_code":"090101",
    "lng":113.99592,
    "lat":22.525756,
    "facility_type":"pharmacy",
    "business_period":"",
    "open_time":null,
    "close_time":null,
    "is_24h":false,
    "night_ratio":0.3,
    "night_service":true,
    "tel":[

    ],
    "adcode":"440304",
    "pcode":"440000",
    "citycode":"0755",
    "source":"amap"
  },
  {
    "name":"深圳市宝安人民医院外科楼",
    "address":"龙井二路118号深圳市宝安人民医院",
    "type":"医疗保健服务;综合医院;三级甲等医院",
    "type_code":"090101",
    "lng":113.913977,
    "lat":22.562251,
    "facility_type":"pharmacy",
    "business_period":"",
    "open_time":null,
    "close_time":null,
    "is_24h":false,
    "night_ratio":0.3,
    "night_service":true,
    "tel":[

    ],
    "adcode":"440306",
    "pcode":"440000",
    "citycode":"0755",
    "source":"amap"
  },
  {
    "name":"华中科技大学协和深圳医院住院部",
    "address":"桃园路89号第六人民医院内",
    "type":"医疗保健服务;综合医院;三级甲等医院",
    "type_code":"090101",
    "lng":113.923958,
    "lat":22.530846,
    "facility_type":"pharmacy",
    "business_period":"",
    "open_time":null,
    "close_time":null,
    "is_24h":false,
    "night_ratio":0.3,
    "night_service":true,
    "tel":[

    ],
    "adcode":"440305",
    "pcode":"440000",
    "citycode":"0755",
    "source":"amap"
  },
  {
    "name":"深圳市宝安中医院(集团)体检科",
    "address":"名中医馆2楼",
    "type":"医疗保健服务;综合医院;三级甲等医院",
    "type_code":"090101",
    "lng":113.89955,
    "lat":22.572476,
    "facility_type":"pharmacy",
    "business_period":"",
    "open_time":null,
    "close_time":null,
    "is_24h":false,
    "night_ratio":0.3,
    "night_service":true,
    "tel":"0755-27801088",
    "adcode":"440306",
    "pcode":"440000",
    "citycode":"0755",
    "source":"amap"
  },
  {
    "name":"深圳市宝安中医院(集团)时珍楼",
    "address":"裕安二路25号深圳市宝安中医院(集团)",
    "type":"医疗保健服务;综合医院;三级甲等医院",
    "type_code":"090101",
    "lng":113.898438,
    "lat":22.571359,
    "facility_type":"pharmacy",
    "business_period":"",
    "open_time":null,
    "close_time":null,
    "is_24h":false,
    "night_ratio":0.3,
    "night_service":true,
    "tel":[

    ],
    "adcode":"440306",
    "pcode":"440000",
    "citycode":"0755",
    "source":"amap"
  },
  {
    "name":"南方医科大学深圳医院体检中心",
    "address":"新湖路13号(新安地铁站E口步行390米)",
    "type":"医疗保健服务;综合医院;三级甲等医院",
    "type_code":"090101",
    "lng":113.896747,
    "lat":22.54429,
    "facility_type":"pharmacy",
    "business_period":"",
    "open_time":null,
    "close_time":null,
    "is_24h":false,
    "night_ratio":0.3,
    "night_service":true,
    "tel":[

    ],
    "adcode":"440306",
    "pcode":"440000",
    "citycode":"0755",
    "source":"amap"
  },
  {
    "name":"深圳市宝安中医院(集团)急诊科",
    "address":"裕安二路25号深圳市宝安中医院内",
    "type":"医疗保健服务;综合医院;三级甲等医院",
    "type_code":"090101",
    "lng":113.898719,
    "lat":22.570906,
    "facility_type":"pharmacy",
    "business_period":"",
    "open_time":null,
    "close_time":null,
    "is_24h":false,
    "night_ratio":0.3,
    "night_service":true,
    "tel":[

    ],
    "adcode":"440306",
    "pcode":"440000",
    "citycode":"0755",
    "source":"amap"
  },
  {
    "name":"深圳市宝安人民医院急诊楼",
    "address":"宝城龙井二路118号深圳市宝安人民医院内",
    "type":"医疗保健服务;综合医院;三级甲等医院",
    "type_code":"090101",
    "lng":113.914107,
    "lat":22.561648,
    "facility_type":"pharmacy",
    "business_period":"",
    "open_time":null,
    "close_time":null,
    "is_24h":false,
    "night_ratio":0.3,
    "night_service":true,
    "tel":[

    ],
    "adcode":"440306",
    "pcode":"440000",
    "citycode":"0755",
    "source":"amap"
  },
  {
    "name":"南方医科大学深圳医院健康管理中心",
    "address":"新湖路13号南方医科大学深圳医院",
    "type":"医疗保健服务;综合医院;三级甲等医院",
    "type_code":"090101",
    "lng":113.896375,
    "lat":22.543454,
    "facility_type":"pharmacy",
    "business_period":"",
    "open_time":null,
    "close_time":null,
    "is_24h":false,
    "night_ratio":0.3,
    "night_service":true,
    "tel":"0755-23329999",
    "adcode":"440306",
    "pcode":"440000",
    "citycode":"0755",
    "source":"amap"
  },
  {
    "name":"香港大学深圳医院住院部",
    "address":"海园一路1号香港大学深圳医院内",
    "type":"医疗保健服务;综合医院;三级甲等医院",
    "type_code":"090101",
    "lng":113.995075,
    "lat":22.524619,
    "facility_type":"pharmacy",
    "business_period":"",
    "open_time":null,
    "close_time":null,
    "is_24h":false,
    "night_ratio":0.3,
    "night_service":true,
    "tel":[

    ],
    "adcode":"440304",
    "pcode":"440000",
    "citycode":"0755",
    "source":"amap"
  },
  {
    "name":"南方医科大学深圳医院急诊部",
    "address":"新湖路13号南方医科大学深圳医院",
    "type":"医疗保健服务;综合医院;三级甲等医院",
    "type_code":"090101",
    "lng":113.896434,
    "lat":22.544606,
    "facility_type":"pharmacy",
    "business_period":"",
    "open_time":null,
    "close_time":null,
    "is_24h":false,
    "night_ratio":0.3,
    "night_service":true,
    "tel":[

    ],
    "adcode":"440306",
    "pcode":"440000",
    "citycode":"0755",
    "source":"amap"
  },
  {
    "name":"华中科技大学协和深圳医院体检科",
    "address":"南山区第六人民医院(南山医院)住院大楼1楼",
    "type":"医疗保健服务;综合医院;三级甲等医院",
    "type_code":"090101",
    "lng":113.923741,
    "lat":22.530865,
    "facility_type":"pharmacy",
    "business_period":"",
    "open_time":null,
    "close_time":null,
    "is_24h":false,
    "night_ratio":0.3,
    "night_service":true,
    "tel":"0755-26565336",
    "adcode":"440305",
    "pcode":"440000",
    "citycode":"0755",
    "source":"amap"
  },
  {
    "name":"香港大学深圳医院国际医疗中心住院部",
    "address":"海园一路1号香港大学深圳医院",
    "type":"医疗保健服务;综合医院;三级甲等医院",
    "type_code":"090101",
    "lng":113.995016,
    "lat":22.52459,
    "facility_type":"pharmacy",
    "business_period":"",
    "open_time":null,
    "close_time":null,
    "is_24h":false,
    "night_ratio":0.3,
    "night_service":true,
    "tel":"0755-86913388",
    "adcode":"440304",
    "pcode":"440000",
    "citycode":"0755",
    "source":"amap"
  },
  {
    "name":"国际医疗中心门诊部",
    "address":"海园一路1号香港大学深圳医院",
    "type":"医疗保健服务;综合医院;三级甲等医院",
    "type_code":"090101",
    "lng":113.99477,
    "lat":22.524246,
    "facility_type":"pharmacy",
    "business_period":"",
    "open_time":null,
    "close_time":null,
    "is_24h":false,
    "night_ratio":0.3,
    "night_service":true,
    "tel":[

    ],
    "adcode":"440304",
    "pcode":"440000",
    "citycode":"0755",
    "source":"amap"
  },
  {
    "name":"香港大学深圳医院国际医疗中心体检部",
    "address":"海园一路1号香港大学深圳医院",
    "type":"医疗保健服务;综合医院;三级甲等医院",
    "type_code":"090101",
    "lng":113.994859,
    "lat":22.523334,
    "facility_type":"pharmacy",
    "business_period":"",
    "open_time":null,
    "close_time":null,
    "is_24h":false,
    "night_ratio":0.3,
    "night_service":true,
    "tel":[

    ],
    "adcode":"440304",
    "pcode":"440000",
    "citycode":"0755",
    "source":"amap"
  },
  {
    "name":"南方医科大学深圳医院名医门诊",
    "address":"新湖路13号(南方医科大学深圳医院)2楼",
    "type":"医疗保健服务;综合医院;三级甲等医院",
    "type_code":"090101",
    "lng":113.896627,
    "lat":22.544269,
    "facility_type":"pharmacy",
    "business_period":"",
    "open_time":null,
    "close_time":null,
    "is_24h":false,
    "night_ratio":0.3,
    "night_service":true,
    "tel":[

    ],
    "adcode":"440306",
    "pcode":"440000",
    "citycode":"0755",
    "source":"amap"
  },
  {
    "name":"深圳市宝安中医院(集团)华佗楼肛肠科",
    "address":"裕安二路25号深圳市宝安中医院东院区",
    "type":"医疗保健服务;综合医院;三级甲等医院",
    "type_code":"090101",
    "lng":113.899825,
    "lat":22.572275,
    "facility_type":"pharmacy",
    "business_period":"",
    "open_time":null,
    "close_time":null,
    "is_24h":false,
    "night_ratio":0.3,
    "night_service":true,
    "tel":"13622638486",
    "adcode":"440306",
    "pcode":"440000",
    "citycode":"0755",
    "source":"amap"
  },
  {
    "name":"深圳市宝安中医院(集团)针灸医院门诊部",
    "address":"新安四路与宝安公园路交叉口东140米",
    "type":"医疗保健服务;综合医院;三级甲等医院",
    "type_code":"090101",
    "lng":113.900519,
    "lat":22.582803,
    "facility_type":"pharmacy",
    "business_period":"",
    "open_time":null,
    "close_time":null,
    "is_24h":false,
    "night_ratio":0.3,
    "night_service":true,
    "tel":[

    ],
    "adcode":"440306",
    "pcode":"440000",
    "citycode":"0755",
    "source":"amap"
  },
  {
    "name":"香港大学深圳医院后勤服务楼",
    "address":"海园一路1号香港大学深圳医院",
    "type":"医疗保健服务;综合医院;三级甲等医院",
    "type_code":"090101",
    "lng":113.996183,
    "lat":22.52674,
    "facility_type":"pharmacy",
    "business_period":"",
    "open_time":null,
    "close_time":null,
    "is_24h":false,
    "night_ratio":0.3,
    "night_service":true,
    "tel":[

    ],
    "adcode":"440304",
    "pcode":"440000",
    "citycode":"0755",
    "source":"amap"
  },
  {
    "name":"深圳市宝安中医院(集团)住院楼",
    "address":"裕安二路25号深圳市宝安区中医院",
    "type":"医疗保健服务;综合医院;三级甲等医院",
    "type_code":"090101",
    "lng":113.898535,
    "lat":22.571406,
    "facility_type":"pharmacy",
    "business_period":"",
    "open_time":null,
    "close_time":null,
    "is_24h":false,
    "night_ratio":0.3,
    "night_service":true,
    "tel":[

    ],
    "adcode":"440306",
    "pcode":"440000",
    "citycode":"0755",
    "source":"amap"
  },
  {
    "name":"深圳市宝安中医院(集团)五味楼",
    "address":"裕安二路25号深圳市宝安中医院(集团)",
    "type":"医疗保健服务;综合医院;三级甲等医院",
    "type_code":"090101",
    "lng":113.898297,
    "lat":22.571767,
    "facility_type":"pharmacy",
    "business_period":"",
    "open_time":null,
    "close_time":null,
    "is_24h":false,
    "night_ratio":0.3,
    "night_service":true,
    "tel":[

    ],
    "adcode":"440306",
    "pcode":"440000",
    "citycode":"0755",
    "source":"amap"
  },
  {
    "name":"南方医科大学深圳医院后勤楼",
    "address":"健宝路与湖滨西路交汇处东北150米",
    "type":"医疗保健服务;综合医院;三级甲等医院",
    "type_code":"090101",
    "lng":113.896736,
    "lat":22.543229,
    "facility_type":"pharmacy",
    "business_period":"",
    "open_time":null,
    "close_time":null,
    "is_24h":false,
    "night_ratio":0.3,
    "night_service":true,
    "tel":[

    ],
    "adcode":"440306",
    "pcode":"440000",
    "citycode":"0755",
    "source":"amap"
  },
  {
    "name":"深圳市宝安人民医院住院部",
    "address":"宝城龙井二路118号深圳市宝安人民医院内",
    "type":"医疗保健服务;综合医院;三级甲等医院",
    "type_code":"090101",
    "lng":113.91461,
    "lat":22.562035,
    "facility_type":"pharmacy",
    "business_period":"",
    "open_time":null,
    "close_time":null,
    "is_24h":false,
    "night_ratio":0.3,
    "night_service":true,
    "tel":[

    ],
    "adcode":"440306",
    "pcode":"440000",
    "citycode":"0755",
    "source":"amap"
  },
  {
    "name":"深圳市宝安人民医院教学楼",
    "address":"龙井二路深圳市宝安区人民医院",
    "type":"医疗保健服务;综合医院;三级甲等医院",
    "type_code":"090101",
    "lng":113.913765,
    "lat":22.561873,
    "facility_type":"pharmacy",
    "business_period":"",
    "open_time":null,
    "close_time":null,
    "is_24h":false,
    "night_ratio":0.3,
    "night_service":true,
    "tel":[

    ],
    "adcode":"440306",
    "pcode":"440000",
    "citycode":"0755",
    "source":"amap"
  },
  {
    "name":"深圳市宝安人民医院发热门诊",
    "address":"龙井二路118号深圳市宝安人民医院",
    "type":"医疗保健服务;综合医院;三级甲等医院",
    "type_code":"090101",
    "lng":113.913565,
    "lat":22.562067,
    "facility_type":"pharmacy",
    "business_period":"",
    "open_time":null,
    "close_time":null,
    "is_24h":false,
    "night_ratio":0.3,
    "night_service":true,
    "tel":[

    ],
    "adcode":"440306",
    "pcode":"440000",
    "citycode":"0755",
    "source":"amap"
  },
  {
    "name":"香港大学深圳医院产科-母婴室",
    "address":"海园一路1号产科门诊3楼",
    "type":"医疗保健服务;综合医院;三级甲等医院",
    "type_code":"090101",
    "lng":113.994805,
    "lat":22.524011,
    "facility_type":"pharmacy",
    "business_period":"",
    "open_time":null,
    "close_time":null,
    "is_24h":false,
    "night_ratio":0.3,
    "night_service":true,
    "tel":[

    ],
    "adcode":"440304",
    "pcode":"440000",
    "citycode":"0755",
    "source":"amap"
  },
  {
    "name":"深圳市宝安中医院(集团)上医楼",
    "address":"裕安二路25号深圳市宝安中医院(集团)",
    "type":"医疗保健服务;综合医院;三级甲等医院",
    "type_code":"090101",
    "lng":113.898125,
    "lat":22.571696,
    "facility_type":"pharmacy",
    "business_period":"",
    "open_time":null,
    "close_time":null,
    "is_24h":false,
    "night_ratio":0.3,
    "night_service":true,
    "tel":[

    ],
    "adcode":"440306",
    "pcode":"440000",
    "citycode":"0755",
    "source":"amap"
  },
  {
    "name":"深圳市宝安中医院(集团)运动康复科",
    "address":"裕安二路25号深圳市宝安中医院(集团)",
    "type":"医疗保健服务;综合医院;三级甲等医院",
    "type_code":"090101",
    "lng":113.898515,
    "lat":22.571049,
    "facility_type":"pharmacy",
    "business_period":"",
    "open_time":null,
    "close_time":null,
    "is_24h":false,
    "night_ratio":0.3,
    "night_service":true,
    "tel":[

    ],
    "adcode":"440306",
    "pcode":"440000",
    "citycode":"0755",
    "source":"amap"
  },
  {
    "name":"悦方广场",
    "address":"西丽街道留仙大道2188号",
    "type":"购物服务;商场;购物中心",
    "type_code":"060101",
    "lng":113.945205,
    "lat":22.58128,
    "facility_type":"supermarket",
    "business_period":"",
    "open_time":null,
    "close_time":null,
    "is_24h":false,
    "night_ratio":0.1,
    "night_service":true,
    "tel":"0755-86549297;13823752313;15581113707",
    "adcode":"440305",
    "pcode":"440000",
    "citycode":"0755",
    "source":"amap"
  },
  {
    "name":"深圳保利文化广场",
    "address":"文心六路4号(后海地铁站D1口步行90米)",
    "type":"购物服务;商场;购物中心|购物服务;商场;普通商场|公司企业;公司;公司|商务住宅;商务住宅相关;商务住宅相关",
    "type_code":"060101|060102|170200|120000",
    "lng":113.938398,
    "lat":22.516785,
    "facility_type":"supermarket",
    "business_period":"",
    "open_time":null,
    "close_time":null,
    "is_24h":false,
    "night_ratio":0.1,
    "night_service":true,
    "tel":"0755-86287915",
    "adcode":"440305",
    "pcode":"440000",
    "citycode":"0755",
    "source":"amap"
  },
  {
    "name":"宝能·all city购物中心(南山店)",
    "address":"蛇口街道深圳湾社区中心路2233号",
    "type":"购物服务;商场;购物中心",
    "type_code":"060101",
    "lng":113.939008,
    "lat":22.499768,
    "facility_type":"supermarket",
    "business_period":"",
    "open_time":null,
    "close_time":null,
    "is_24h":false,
    "night_ratio":0.1,
    "night_service":true,
    "tel":"13878338196",
    "adcode":"440305",
    "pcode":"440000",
    "citycode":"0755",
    "source":"amap"
  },
  {
    "name":"泛海城市广场购物中心",
    "address":"前海路70号",
    "type":"购物服务;商场;购物中心",
    "type_code":"060101",
    "lng":113.892722,
    "lat":22.493971,
    "facility_type":"supermarket",
    "business_period":"",
    "open_time":null,
    "close_time":null,
    "is_24h":false,
    "night_ratio":0.1,
    "night_service":true,
    "tel":"0755-36368305;0755-36655600",
    "adcode":"440305",
    "pcode":"440000",
    "citycode":"0755",
    "source":"amap"
  },
  {
    "name":"福到来购物中心(三号路)",
    "address":"深云路28号",
    "type":"购物服务;商场;购物中心",
    "type_code":"060101",
    "lng":113.992026,
    "lat":22.554115,
    "facility_type":"supermarket",
    "business_period":"",
    "open_time":null,
    "close_time":null,
    "is_24h":false,
    "night_ratio":0.1,
    "night_service":true,
    "tel":"0755-86509960;0755-86509962;15820456915",
    "adcode":"440305",
    "pcode":"440000",
    "citycode":"0755",
    "source":"amap"
  },
  {
    "name":"新亿佳购物广场(黄田路店)",
    "address":"黄田路17号(黄田地铁站D口步行360米)",
    "type":"购物服务;商场;购物中心",
    "type_code":"060101",
    "lng":113.846002,
    "lat":22.626647,
    "facility_type":"supermarket",
    "business_period":"",
    "open_time":null,
    "close_time":null,
    "is_24h":false,
    "night_ratio":0.1,
    "night_service":true,
    "tel":"0755-29928498",
    "adcode":"440306",
    "pcode":"440000",
    "citycode":"0755",
    "source":"amap"
  },
  {
    "name":"中洲购物中心",
    "address":"创业二路89号(灵芝地铁站C1口步行170米)",
    "type":"购物服务;商场;购物中心",
    "type_code":"060101",
    "lng":113.90661,
    "lat":22.57178,
    "facility_type":"supermarket",
    "business_period":"",
    "open_time":null,
    "close_time":null,
    "is_24h":false,
    "night_ratio":0.1,
    "night_service":true,
    "tel":"0755-29923333",
    "adcode":"440306",
    "pcode":"440000",
    "citycode":"0755",
    "source":"amap"
  },
  {
    "name":"裕宝商场购物中心",
    "address":"建安一路裕宝大厦(新安公园地铁站D口步行380米)",
    "type":"购物服务;商场;购物中心",
    "type_code":"060101",
    "lng":113.908673,
    "lat":22.55952,
    "facility_type":"supermarket",
    "business_period":"",
    "open_time":null,
    "close_time":null,
    "is_24h":false,
    "night_ratio":0.1,
    "night_service":true,
    "tel":[

    ],
    "adcode":"440306",
    "pcode":"440000",
    "citycode":"0755",
    "source":"amap"
  },
  {
    "name":"宝能·all city南区",
    "address":"中心路2233号(海月地铁站A口步行120米)",
    "type":"购物服务;商场;购物中心",
    "type_code":"060101",
    "lng":113.93895,
    "lat":22.499432,
    "facility_type":"supermarket",
    "business_period":"",
    "open_time":null,
    "close_time":null,
    "is_24h":false,
    "night_ratio":0.1,
    "night_service":true,
    "tel":"0755-26019999;0755-36880888",
    "adcode":"440305",
    "pcode":"440000",
    "citycode":"0755",
    "source":"amap"
  },
  {
    "name":"欧洲城(欧源路店)",
    "address":"北环大道8188号",
    "type":"购物服务;商场;购物中心",
    "type_code":"060101",
    "lng":113.965459,
    "lat":22.55721,
    "facility_type":"supermarket",
    "business_period":"",
    "open_time":null,
    "close_time":null,
    "is_24h":false,
    "night_ratio":0.1,
    "night_service":true,
    "tel":"13823396836",
    "adcode":"440305",
    "pcode":"440000",
    "citycode":"0755",
    "source":"amap"
  },
  {
    "name":"CITY花园城北区",
    "address":"南海大道1090号(四海地铁站D口步行190米)",
    "type":"购物服务;商场;购物中心",
    "type_code":"060101",
    "lng":113.923438,
    "lat":22.501838,
    "facility_type":"supermarket",
    "business_period":"",
    "open_time":null,
    "close_time":null,
    "is_24h":false,
    "night_ratio":0.1,
    "night_service":true,
    "tel":[

    ],
    "adcode":"440305",
    "pcode":"440000",
    "citycode":"0755",
    "source":"amap"
  },
  {
    "name":"华·生活馆北区",
    "address":"兴隆西街2号(华侨城地铁站B口步行420米)",
    "type":"购物服务;商场;购物中心|购物服务;商场;普通商场",
    "type_code":"060101|060102",
    "lng":113.982742,
    "lat":22.536492,
    "facility_type":"supermarket",
    "business_period":"",
    "open_time":null,
    "close_time":null,
    "is_24h":false,
    "night_ratio":0.1,
    "night_service":true,
    "tel":[

    ],
    "adcode":"440305",
    "pcode":"440000",
    "citycode":"0755",
    "source":"amap"
  },
  {
    "name":"海雅缤纷城百货馆",
    "address":"建安一路99号海雅缤纷城1-2层",
    "type":"购物服务;商场;购物中心",
    "type_code":"060101",
    "lng":113.906185,
    "lat":22.561022,
    "facility_type":"supermarket",
    "business_period":"",
    "open_time":null,
    "close_time":null,
    "is_24h":false,
    "night_ratio":0.1,
    "night_service":true,
    "tel":[

    ],
    "adcode":"440306",
    "pcode":"440000",
    "citycode":"0755",
    "source":"amap"
  },
  {
    "name":"深圳万象天地",
    "address":"粤海街道大冲社区深南大道9668号",
    "type":"购物服务;商场;购物中心",
    "type_code":"060101",
    "lng":113.95596,
    "lat":22.541865,
    "facility_type":"supermarket",
    "business_period":"",
    "open_time":null,
    "close_time":null,
    "is_24h":false,
    "night_ratio":0.1,
    "night_service":true,
    "tel":"0755-86680088;0755-86959451",
    "adcode":"440305",
    "pcode":"440000",
    "citycode":"0755",
    "source":"amap"
  },
  {
    "name":"宝利丰商业广场",
    "address":"新安街道31区上合路79号",
    "type":"购物服务;商场;购物中心",
    "type_code":"060101",
    "lng":113.90043,
    "lat":22.577238,
    "facility_type":"supermarket",
    "business_period":"",
    "open_time":null,
    "close_time":null,
    "is_24h":false,
    "night_ratio":0.1,
    "night_service":true,
    "tel":[

    ],
    "adcode":"440306",
    "pcode":"440000",
    "citycode":"0755",
    "source":"amap"
  },
  {
    "name":"华侨城购物广场",
    "address":"购物中心商业街1-4(华侨城地铁站B口步行290米)",
    "type":"购物服务;商场;购物中心|购物服务;综合市场;综合市场",
    "type_code":"060101|060700",
    "lng":113.982968,
    "lat":22.534864,
    "facility_type":"supermarket",
    "business_period":"",
    "open_time":null,
    "close_time":null,
    "is_24h":false,
    "night_ratio":0.1,
    "night_service":true,
    "tel":[

    ],
    "adcode":"440305",
    "pcode":"440000",
    "citycode":"0755",
    "source":"amap"
  },
  {
    "name":"深圳保利文化广场(C区)",
    "address":"海德二道3号(后海地铁站E2口步行230米)",
    "type":"购物服务;商场;购物中心",
    "type_code":"060101",
    "lng":113.937508,
    "lat":22.516643,
    "facility_type":"supermarket",
    "business_period":"",
    "open_time":null,
    "close_time":null,
    "is_24h":false,
    "night_ratio":0.1,
    "night_service":true,
    "tel":"13686885266",
    "adcode":"440305",
    "pcode":"440000",
    "citycode":"0755",
    "source":"amap"
  },
  {
    "name":"欢乐颂购物中心",
    "address":"南头街道田厦社区南新路3030号",
    "type":"购物服务;商场;购物中心",
    "type_code":"060101",
    "lng":113.920039,
    "lat":22.535095,
    "facility_type":"supermarket",
    "business_period":"",
    "open_time":null,
    "close_time":null,
    "is_24h":false,
    "night_ratio":0.1,
    "night_service":true,
    "tel":"0755-86646752",
    "adcode":"440305",
    "pcode":"440000",
    "citycode":"0755",
    "source":"amap"
  },
  {
    "name":"海上世界·汇港购物中心一期",
    "address":"工业三路1号(海上世界地铁站D口步行300米)",
    "type":"购物服务;商场;购物中心",
    "type_code":"060101",
    "lng":113.916014,
    "lat":22.485644,
    "facility_type":"supermarket",
    "business_period":"",
    "open_time":null,
    "close_time":null,
    "is_24h":false,
    "night_ratio":0.1,
    "night_service":true,
    "tel":"0755-88278876",
    "adcode":"440305",
    "pcode":"440000",
    "citycode":"0755",
    "source":"amap"
  },
  {
    "name":"潮流广场",
    "address":"后海滨路3019号(海德二道与文心六路交叉口东北角)",
    "type":"购物服务;商场;购物中心",
    "type_code":"060101",
    "lng":113.939299,
    "lat":22.518079,
    "facility_type":"supermarket",
    "business_period":"",
    "open_time":null,
    "close_time":null,
    "is_24h":false,
    "night_ratio":0.1,
    "night_service":true,
    "tel":"0755-86062922",
    "adcode":"440305",
    "pcode":"440000",
    "citycode":"0755",
    "source":"amap"
  },
  {
    "name":"K11 ECOAST南馆",
    "address":"太子湾路56号(太子湾地铁站C口步行440米)",
    "type":"购物服务;商场;购物中心",
    "type_code":"060101",
    "lng":113.915276,
    "lat":22.471199,
    "facility_type":"supermarket",
    "business_period":"",
    "open_time":null,
    "close_time":null,
    "is_24h":false,
    "night_ratio":0.1,
    "night_service":true,
    "tel":"0755-36832131",
    "adcode":"440305",
    "pcode":"440000",
    "citycode":"0755",
    "source":"amap"
  },
  {
    "name":"深圳湾万象城A区",
    "address":"科苑南路2888号(后海地铁站L口步行330米)",
    "type":"购物服务;商场;购物中心",
    "type_code":"060101",
    "lng":113.946146,
    "lat":22.516103,
    "facility_type":"supermarket",
    "business_period":"",
    "open_time":null,
    "close_time":null,
    "is_24h":false,
    "night_ratio":0.1,
    "night_service":true,
    "tel":[

    ],
    "adcode":"440305",
    "pcode":"440000",
    "citycode":"0755",
    "source":"amap"
  },
  {
    "name":"深圳湾万象城C区",
    "address":"粤海街道海珠社区海德一道1218号C栋",
    "type":"购物服务;商场;购物中心",
    "type_code":"060101",
    "lng":113.943718,
    "lat":22.514828,
    "facility_type":"supermarket",
    "business_period":"",
    "open_time":null,
    "close_time":null,
    "is_24h":false,
    "night_ratio":0.1,
    "night_service":true,
    "tel":[

    ],
    "adcode":"440305",
    "pcode":"440000",
    "citycode":"0755",
    "source":"amap"
  },
  {
    "name":"前海壹方汇",
    "address":"南山街道桂湾社区听海大道5059号(桂湾地铁站E口步行320米)",
    "type":"购物服务;商场;购物中心",
    "type_code":"060101",
    "lng":113.896641,
    "lat":22.529207,
    "facility_type":"supermarket",
    "business_period":"",
    "open_time":null,
    "close_time":null,
    "is_24h":false,
    "night_ratio":0.1,
    "night_service":true,
    "tel":"0755-88980166",
    "adcode":"440305",
    "pcode":"440000",
    "citycode":"0755",
    "source":"amap"
  },
  {
    "name":"海岸城购物中心西区",
    "address":"文心五路33号",
    "type":"购物服务;商场;购物中心",
    "type_code":"060101",
    "lng":113.935141,
    "lat":22.517366,
    "facility_type":"supermarket",
    "business_period":"",
    "open_time":null,
    "close_time":null,
    "is_24h":false,
    "night_ratio":0.1,
    "night_service":true,
    "tel":"13309593534",
    "adcode":"440305",
    "pcode":"440000",
    "citycode":"0755",
    "source":"amap"
  },
  {
    "name":"深圳大悦城购物中心",
    "address":"创业二路与前进一路交汇处",
    "type":"购物服务;商场;购物中心",
    "type_code":"060101",
    "lng":113.902405,
    "lat":22.569125,
    "facility_type":"supermarket",
    "business_period":"",
    "open_time":null,
    "close_time":null,
    "is_24h":false,
    "night_ratio":0.1,
    "night_service":true,
    "tel":"0755-23508787",
    "adcode":"440306",
    "pcode":"440000",
    "citycode":"0755",
    "source":"amap"
  },
  {
    "name":"宝安大仟里",
    "address":"西乡街道麻布社区海城路3号",
    "type":"购物服务;商场;普通商场|购物服务;商场;购物中心",
    "type_code":"060102|060101",
    "lng":113.872656,
    "lat":22.570167,
    "facility_type":"supermarket",
    "business_period":"",
    "open_time":null,
    "close_time":null,
    "is_24h":false,
    "night_ratio":0.1,
    "night_service":true,
    "tel":"0755-23207670;0755-23208260",
    "adcode":"440306",
    "pcode":"440000",
    "citycode":"0755",
    "source":"amap"
  },
  {
    "name":"K11 ECOAST",
    "address":"太子湾路56号(太子湾地铁站C口步行290米)",
    "type":"购物服务;商场;购物中心",
    "type_code":"060101",
    "lng":113.914368,
    "lat":22.471771,
    "facility_type":"supermarket",
    "business_period":"",
    "open_time":null,
    "close_time":null,
    "is_24h":false,
    "night_ratio":0.1,
    "night_service":true,
    "tel":"0755-36832131;0755-36832137;17512087078",
    "adcode":"440305",
    "pcode":"440000",
    "citycode":"0755",
    "source":"amap"
  },
  {
    "name":"宝安万达广场A馆",
    "address":"上川二路与广深公路辅路交叉口",
    "type":"购物服务;商场;购物中心",
    "type_code":"060101",
    "lng":113.890609,
    "lat":22.572151,
    "facility_type":"supermarket",
    "business_period":"",
    "open_time":null,
    "close_time":null,
    "is_24h":false,
    "night_ratio":0.1,
    "night_service":true,
    "tel":[

    ],
    "adcode":"440306",
    "pcode":"440000",
    "citycode":"0755",
    "source":"amap"
  },
  {
    "name":"壹方城购物中心东区",
    "address":"新湖路99号(宝华地铁站B2口步行430米)",
    "type":"购物服务;商场;购物中心",
    "type_code":"060101",
    "lng":113.888061,
    "lat":22.550963,
    "facility_type":"supermarket",
    "business_period":"",
    "open_time":null,
    "close_time":null,
    "is_24h":false,
    "night_ratio":0.1,
    "night_service":true,
    "tel":[

    ],
    "adcode":"440306",
    "pcode":"440000",
    "citycode":"0755",
    "source":"amap"
  },
  {
    "name":"壹方城购物中心西区",
    "address":"新湖路99号(宝华地铁站B1口步行260米)",
    "type":"购物服务;商场;购物中心",
    "type_code":"060101",
    "lng":113.886839,
    "lat":22.551913,
    "facility_type":"supermarket",
    "business_period":"",
    "open_time":null,
    "close_time":null,
    "is_24h":false,
    "night_ratio":0.1,
    "night_service":true,
    "tel":[

    ],
    "adcode":"440306",
    "pcode":"440000",
    "citycode":"0755",
    "source":"amap"
  },
  {
    "name":"前海卓悦INTOWN购物中心",
    "address":"梦海大道5109号(桂湾地铁站A口步行200米)",
    "type":"购物服务;商场;购物中心",
    "type_code":"060101",
    "lng":113.898992,
    "lat":22.529275,
    "facility_type":"supermarket",
    "business_period":"",
    "open_time":null,
    "close_time":null,
    "is_24h":false,
    "night_ratio":0.1,
    "night_service":true,
    "tel":"0755-88984050",
    "adcode":"440305",
    "pcode":"440000",
    "citycode":"0755",
    "source":"amap"
  },
  {
    "name":"深圳宝安福城万达广场",
    "address":"广深公路20号",
    "type":"购物服务;商场;购物中心",
    "type_code":"060101",
    "lng":113.891615,
    "lat":22.571129,
    "facility_type":"supermarket",
    "business_period":"",
    "open_time":null,
    "close_time":null,
    "is_24h":false,
    "night_ratio":0.1,
    "night_service":true,
    "tel":"0755-29691725",
    "adcode":"440306",
    "pcode":"440000",
    "citycode":"0755",
    "source":"amap"
  },
  {
    "name":"天虹(福永天虹商场店)",
    "address":"福永街道兴围社区兴华路2号星航华府四期101-401天虹商场(福永店)F1层",
    "type":"购物服务;商场;购物中心|生活服务;彩票彩券销售点;彩票彩券销售点",
    "type_code":"060101|071800",
    "lng":113.832916,
    "lat":22.643,
    "facility_type":"supermarket",
    "business_period":"",
    "open_time":null,
    "close_time":null,
    "is_24h":false,
    "night_ratio":0.1,
    "night_service":true,
    "tel":"0755-85900800;0755-85900840",
    "adcode":"440306",
    "pcode":"440000",
    "citycode":"0755",
    "source":"amap"
  },
  {
    "name":"天虹购物中心(深圳君尚3019店)",
    "address":"南山中心路与兰香一街交叉口西北80米",
    "type":"购物服务;商场;购物中心",
    "type_code":"060101",
    "lng":113.940838,
    "lat":22.506775,
    "facility_type":"supermarket",
    "business_period":"",
    "open_time":null,
    "close_time":null,
    "is_24h":false,
    "night_ratio":0.1,
    "night_service":true,
    "tel":"0755-23653019",
    "adcode":"440305",
    "pcode":"440000",
    "citycode":"0755",
    "source":"amap"
  },
  {
    "name":"益田假日里购物中心(西丽店)",
    "address":"桃源街道平山社区留仙大道4168号众冠时代广场(大学城地铁站D出口)",
    "type":"购物服务;商场;购物中心|商务住宅;住宅区;住宅小区",
    "type_code":"060101|120302",
    "lng":113.963944,
    "lat":22.582777,
    "facility_type":"supermarket",
    "business_period":"",
    "open_time":null,
    "close_time":null,
    "is_24h":false,
    "night_ratio":0.1,
    "night_service":true,
    "tel":"0755-86728976",
    "adcode":"440305",
    "pcode":"440000",
    "citycode":"0755",
    "source":"amap"
  },
  {
    "name":"深圳湾后海汇",
    "address":"粤海街道后海滨路3288号",
    "type":"购物服务;商场;购物中心",
    "type_code":"060101",
    "lng":113.94081,
    "lat":22.515866,
    "facility_type":"supermarket",
    "business_period":"",
    "open_time":null,
    "close_time":null,
    "is_24h":false,
    "night_ratio":0.1,
    "night_service":true,
    "tel":"0755-36518551",
    "adcode":"440305",
    "pcode":"440000",
    "citycode":"0755",
    "source":"amap"
  },
  {
    "name":"海岸城购物中心东区",
    "address":"文心四路与海德一道交叉口东北120米",
    "type":"购物服务;商场;购物中心",
    "type_code":"060101",
    "lng":113.936262,
    "lat":22.516877,
    "facility_type":"supermarket",
    "business_period":"",
    "open_time":null,
    "close_time":null,
    "is_24h":false,
    "night_ratio":0.1,
    "night_service":true,
    "tel":"0755-86125888",
    "adcode":"440305",
    "pcode":"440000",
    "citycode":"0755",
    "source":"amap"
  },
  {
    "name":"深圳湾万象城",
    "address":"科苑南路2888号",
    "type":"购物服务;商场;购物中心",
    "type_code":"060101",
    "lng":113.9444,
    "lat":22.515475,
    "facility_type":"supermarket",
    "business_period":"",
    "open_time":null,
    "close_time":null,
    "is_24h":false,
    "night_ratio":0.1,
    "night_service":true,
    "tel":"0755-86655666",
    "adcode":"440305",
    "pcode":"440000",
    "citycode":"0755",
    "source":"amap"
  },
  {
    "name":"印力中心",
    "address":"农林路69号深国投广场2号楼12层印力集团2号楼12层",
    "type":"购物服务;商场;购物中心|商务住宅;商务住宅相关;商务住宅相关",
    "type_code":"060101|120000",
    "lng":114.012133,
    "lat":22.544656,
    "facility_type":"supermarket",
    "business_period":"",
    "open_time":null,
    "close_time":null,
    "is_24h":false,
    "night_ratio":0.1,
    "night_service":true,
    "tel":"0755-82809808;0755-82809888",
    "adcode":"440304",
    "pcode":"440000",
    "citycode":"0755",
    "source":"amap"
  },
  {
    "name":"天虹商场(深圳南山常兴店)",
    "address":"桃园路86号(桃园地铁站B口步行190米)",
    "type":"购物服务;商场;购物中心|购物服务;商场;普通商场",
    "type_code":"060101|060102",
    "lng":113.921918,
    "lat":22.53307,
    "facility_type":"supermarket",
    "business_period":"",
    "open_time":null,
    "close_time":null,
    "is_24h":false,
    "night_ratio":0.1,
    "night_service":true,
    "tel":"0755-86052000;0755-86052020",
    "adcode":"440305",
    "pcode":"440000",
    "citycode":"0755",
    "source":"amap"
  },
  {
    "name":"南山欢乐颂店",
    "address":"南新路3030号",
    "type":"购物服务;商场;购物中心",
    "type_code":"060101",
    "lng":113.920025,
    "lat":22.535075,
    "facility_type":"supermarket",
    "business_period":"",
    "open_time":null,
    "close_time":null,
    "is_24h":false,
    "night_ratio":0.1,
    "night_service":true,
    "tel":[

    ],
    "adcode":"440305",
    "pcode":"440000",
    "citycode":"0755",
    "source":"amap"
  },
  {
    "name":"华·生活馆南区",
    "address":"兴隆西街2号(华侨城地铁站B口步行230米)",
    "type":"购物服务;商场;购物中心|购物服务;商场;普通商场",
    "type_code":"060101|060102",
    "lng":113.982976,
    "lat":22.535701,
    "facility_type":"supermarket",
    "business_period":"",
    "open_time":null,
    "close_time":null,
    "is_24h":false,
    "night_ratio":0.1,
    "night_service":true,
    "tel":[

    ],
    "adcode":"440305",
    "pcode":"440000",
    "citycode":"0755",
    "source":"amap"
  },
  {
    "name":"华侨城欢乐海岸",
    "address":"滨海大道2008号(深圳湾公园地铁E出口)",
    "type":"体育休闲服务;休闲场所;游乐场|购物服务;商场;购物中心|风景名胜;风景名胜相关;旅游景点",
    "type_code":"080501|060101|110000",
    "lng":113.987914,
    "lat":22.523405,
    "facility_type":"supermarket",
    "business_period":"",
    "open_time":null,
    "close_time":null,
    "is_24h":false,
    "night_ratio":0.1,
    "night_service":true,
    "tel":"0755-86122311",
    "adcode":"440305",
    "pcode":"440000",
    "citycode":"0755",
    "source":"amap"
  },
  {
    "name":"深圳湾万象城D区",
    "address":"粤海街道海珠社区海德一道1218号D栋",
    "type":"购物服务;商场;购物中心",
    "type_code":"060101",
    "lng":113.942191,
    "lat":22.516082,
    "facility_type":"supermarket",
    "business_period":"",
    "open_time":null,
    "close_time":null,
    "is_24h":false,
    "night_ratio":0.1,
    "night_service":true,
    "tel":[

    ],
    "adcode":"440305",
    "pcode":"440000",
    "citycode":"0755",
    "source":"amap"
  },
  {
    "name":"深圳湾万象城B区",
    "address":"粤海街道海珠社区海德一道1218号B栋",
    "type":"购物服务;商场;购物中心",
    "type_code":"060101",
    "lng":113.945774,
    "lat":22.514246,
    "facility_type":"supermarket",
    "business_period":"",
    "open_time":null,
    "close_time":null,
    "is_24h":false,
    "night_ratio":0.1,
    "night_service":true,
    "tel":[

    ],
    "adcode":"440305",
    "pcode":"440000",
    "citycode":"0755",
    "source":"amap"
  },
  {
    "name":"睿印里RAIL INLI",
    "address":"深安路与新友路交叉口东南100米",
    "type":"购物服务;商场;购物中心",
    "type_code":"060101",
    "lng":113.989882,
    "lat":22.552059,
    "facility_type":"supermarket",
    "business_period":"",
    "open_time":null,
    "close_time":null,
    "is_24h":false,
    "night_ratio":0.1,
    "night_service":true,
    "tel":"0755-86666998",
    "adcode":"440305",
    "pcode":"440000",
    "citycode":"0755",
    "source":"amap"
  },
  {
    "name":"得丰·圆方购物中心",
    "address":"甲岸路4号(新安地铁站C口步行70米)",
    "type":"购物服务;商场;购物中心",
    "type_code":"060101",
    "lng":113.894138,
    "lat":22.54932,
    "facility_type":"supermarket",
    "business_period":"",
    "open_time":null,
    "close_time":null,
    "is_24h":false,
    "night_ratio":0.1,
    "night_service":true,
    "tel":"13632832365",
    "adcode":"440306",
    "pcode":"440000",
    "citycode":"0755",
    "source":"amap"
  },
  {
    "name":"方大城购物中心北区",
    "address":"北环大道辅路与北环侨香立交桥交叉口东北200米",
    "type":"购物服务;商场;购物中心",
    "type_code":"060101",
    "lng":113.973067,
    "lat":22.556714,
    "facility_type":"supermarket",
    "business_period":"",
    "open_time":null,
    "close_time":null,
    "is_24h":false,
    "night_ratio":0.1,
    "night_service":true,
    "tel":[

    ],
    "adcode":"440305",
    "pcode":"440000",
    "citycode":"0755",
    "source":"amap"
  },
  {
    "name":"同乐购物广场",
    "address":"同乐村5号",
    "type":"购物服务;商场;购物中心|购物服务;超级市场;超市|购物服务;便民商店\/便利店;便民商店\/便利店",
    "type_code":"060101|060400|060200",
    "lng":113.922954,
    "lat":22.567697,
    "facility_type":"supermarket",
    "business_period":"",
    "open_time":null,
    "close_time":null,
    "is_24h":false,
    "night_ratio":0.1,
    "night_service":true,
    "tel":"0755-26986189;13428720733",
    "adcode":"440305",
    "pcode":"440000",
    "citycode":"0755",
    "source":"amap"
  },
  {
    "name":"宝安万达广场B馆",
    "address":"宝民一路福城前海新纪元",
    "type":"购物服务;商场;购物中心",
    "type_code":"060101",
    "lng":113.892451,
    "lat":22.570243,
    "facility_type":"supermarket",
    "business_period":"",
    "open_time":null,
    "close_time":null,
    "is_24h":false,
    "night_ratio":0.1,
    "night_service":true,
    "tel":"0755-33978825",
    "adcode":"440306",
    "pcode":"440000",
    "citycode":"0755",
    "source":"amap"
  },
  {
    "name":"万象前海",
    "address":"南山街道桂湾社区桂湾四路169号(地铁5号线桂湾站A出口直达)",
    "type":"购物服务;商场;购物中心",
    "type_code":"060101",
    "lng":113.899626,
    "lat":22.531015,
    "facility_type":"supermarket",
    "business_period":"",
    "open_time":null,
    "close_time":null,
    "is_24h":false,
    "night_ratio":0.1,
    "night_service":true,
    "tel":"0755-88986868",
    "adcode":"440305",
    "pcode":"440000",
    "citycode":"0755",
    "source":"amap"
  },
  {
    "name":"荟悦城生活广场",
    "address":"新安四路金海华府1-2层",
    "type":"购物服务;商场;普通商场|购物服务;商场;购物中心",
    "type_code":"060102|060101",
    "lng":113.895435,
    "lat":22.582213,
    "facility_type":"supermarket",
    "business_period":"",
    "open_time":null,
    "close_time":null,
    "is_24h":false,
    "night_ratio":0.1,
    "night_service":true,
    "tel":[

    ],
    "adcode":"440306",
    "pcode":"440000",
    "citycode":"0755",
    "source":"amap"
  },
  {
    "name":"壹方城购物中心北区",
    "address":"新湖路99号(宝安中心地铁站出入口步行140米)",
    "type":"购物服务;商场;购物中心",
    "type_code":"060101",
    "lng":113.888212,
    "lat":22.552534,
    "facility_type":"supermarket",
    "business_period":"",
    "open_time":null,
    "close_time":null,
    "is_24h":false,
    "night_ratio":0.1,
    "night_service":true,
    "tel":[

    ],
    "adcode":"440306",
    "pcode":"440000",
    "citycode":"0755",
    "source":"amap"
  },
  {
    "name":"共乐智慧城购物中心",
    "address":"龙腾工业路28号",
    "type":"购物服务;商场;普通商场|购物服务;商场;购物中心",
    "type_code":"060102|060101",
    "lng":113.86893,
    "lat":22.582372,
    "facility_type":"supermarket",
    "business_period":"",
    "open_time":null,
    "close_time":null,
    "is_24h":false,
    "night_ratio":0.1,
    "night_service":true,
    "tel":[

    ],
    "adcode":"440306",
    "pcode":"440000",
    "citycode":"0755",
    "source":"amap"
  },
  {
    "name":"融创荟",
    "address":"龙胜路与宇丰一路交叉口东80米",
    "type":"购物服务;商场;购物中心",
    "type_code":"060101",
    "lng":114.019305,
    "lat":22.643154,
    "facility_type":"supermarket",
    "business_period":"",
    "open_time":null,
    "close_time":null,
    "is_24h":false,
    "night_ratio":0.1,
    "night_service":true,
    "tel":"18025499003;18825203259",
    "adcode":"440309",
    "pcode":"440000",
    "citycode":"0755",
    "source":"amap"
  },
  {
    "name":"海上世界·汇港购物中心(二期)",
    "address":"海上世界地铁站C口步行80米",
    "type":"购物服务;商场;购物中心",
    "type_code":"060101",
    "lng":113.91465,
    "lat":22.485348,
    "facility_type":"supermarket",
    "business_period":"",
    "open_time":null,
    "close_time":null,
    "is_24h":false,
    "night_ratio":0.1,
    "night_service":true,
    "tel":"0755-26661600;0755-26837880",
    "adcode":"440305",
    "pcode":"440000",
    "citycode":"0755",
    "source":"amap"
  },
  {
    "name":"天利名城购物中心",
    "address":"海德三道195天利中央广场C座",
    "type":"购物服务;商场;购物中心",
    "type_code":"060101",
    "lng":113.935286,
    "lat":22.518359,
    "facility_type":"supermarket",
    "business_period":"",
    "open_time":null,
    "close_time":null,
    "is_24h":false,
    "night_ratio":0.1,
    "night_service":true,
    "tel":"0755-86636999",
    "adcode":"440305",
    "pcode":"440000",
    "citycode":"0755",
    "source":"amap"
  },
  {
    "name":"宝安勤诚达K+广场",
    "address":"新安三路65号(洪浪北地铁站出入口步行70米)",
    "type":"购物服务;商场;普通商场|购物服务;商场;购物中心",
    "type_code":"060102|060101",
    "lng":113.910863,
    "lat":22.573389,
    "facility_type":"supermarket",
    "business_period":"",
    "open_time":null,
    "close_time":null,
    "is_24h":false,
    "night_ratio":0.1,
    "night_service":true,
    "tel":"0755-27789999",
    "adcode":"440306",
    "pcode":"440000",
    "citycode":"0755",
    "source":"amap"
  },
  {
    "name":"航城里购物中心",
    "address":"航城大道与黄田路交叉口西北角",
    "type":"购物服务;商场;购物中心",
    "type_code":"060101",
    "lng":113.850033,
    "lat":22.606973,
    "facility_type":"supermarket",
    "business_period":"",
    "open_time":null,
    "close_time":null,
    "is_24h":false,
    "night_ratio":0.1,
    "night_service":true,
    "tel":"0755-23286985",
    "adcode":"440306",
    "pcode":"440000",
    "citycode":"0755",
    "source":"amap"
  },
  {
    "name":"深圳湾1号·湾汇",
    "address":"中心路深圳湾1号",
    "type":"购物服务;商场;购物中心",
    "type_code":"060101",
    "lng":113.942713,
    "lat":22.506899,
    "facility_type":"supermarket",
    "business_period":"",
    "open_time":null,
    "close_time":null,
    "is_24h":false,
    "night_ratio":0.1,
    "night_service":true,
    "tel":"0755-86666245",
    "adcode":"440305",
    "pcode":"440000",
    "citycode":"0755",
    "source":"amap"
  },
  {
    "name":"深圳航空",
    "address":"航站四路与机场支一路交叉口北60米",
    "type":"生活服务;售票处;飞机票代售点",
    "type_code":"070301",
    "lng":113.83275,
    "lat":22.626706,
    "facility_type":"convenience",
    "business_period":"",
    "open_time":null,
    "close_time":null,
    "is_24h":false,
    "night_ratio":1.0,
    "night_service":true,
    "tel":"0755-27771999",
    "adcode":"440306",
    "pcode":"440000",
    "citycode":"0755",
    "source":"amap"
  },
  {
    "name":"深圳宝安国际机场T3航站楼春秋航空",
    "address":"福永镇深圳宝安国际机场T3航站楼F4层",
    "type":"交通设施服务;火车站;票务相关|生活服务;售票处;飞机票代售点",
    "type_code":"150209|070301",
    "lng":113.814288,
    "lat":22.625109,
    "facility_type":"convenience",
    "business_period":"",
    "open_time":null,
    "close_time":null,
    "is_24h":false,
    "night_ratio":1.0,
    "night_service":true,
    "tel":[

    ],
    "adcode":"440306",
    "pcode":"440000",
    "citycode":"0755",
    "source":"amap"
  },
  {
    "name":"深圳宝安国际机场T3航站楼售票柜台",
    "address":"福永街道深圳宝安国际机场T3航站楼4F层",
    "type":"生活服务;售票处;飞机票代售点|生活服务;售票处;火车票代售点",
    "type_code":"070301|070302",
    "lng":113.812804,
    "lat":22.624505,
    "facility_type":"convenience",
    "business_period":"",
    "open_time":null,
    "close_time":null,
    "is_24h":false,
    "night_ratio":1.0,
    "night_service":true,
    "tel":[

    ],
    "adcode":"440306",
    "pcode":"440000",
    "citycode":"0755",
    "source":"amap"
  },
  {
    "name":"深圳宝安国际机场T3航站楼深航票务",
    "address":"福永街道深圳宝安国际机场T3航站楼4F层",
    "type":"生活服务;售票处;飞机票代售点",
    "type_code":"070301",
    "lng":113.81201,
    "lat":22.624134,
    "facility_type":"convenience",
    "business_period":"",
    "open_time":null,
    "close_time":null,
    "is_24h":false,
    "night_ratio":1.0,
    "night_service":true,
    "tel":[

    ],
    "adcode":"440306",
    "pcode":"440000",
    "citycode":"0755",
    "source":"amap"
  },
  {
    "name":"飞机票火车票(凤凰岗售票处)",
    "address":"宝田路149号(宝田一路地铁站A口步行110米)",
    "type":"生活服务;售票处;飞机票代售点",
    "type_code":"070301",
    "lng":113.879435,
    "lat":22.595382,
    "facility_type":"convenience",
    "business_period":"",
    "open_time":null,
    "close_time":null,
    "is_24h":false,
    "night_ratio":1.0,
    "night_service":true,
    "tel":[

    ],
    "adcode":"440306",
    "pcode":"440000",
    "citycode":"0755",
    "source":"amap"
  },
  {
    "name":"深圳宝安国际机场T3航站楼国航票务",
    "address":"福永街道深圳宝安国际机场T3航站楼4F层",
    "type":"生活服务;售票处;飞机票代售点",
    "type_code":"070301",
    "lng":113.812047,
    "lat":22.624154,
    "facility_type":"convenience",
    "business_period":"",
    "open_time":null,
    "close_time":null,
    "is_24h":false,
    "night_ratio":1.0,
    "night_service":true,
    "tel":[

    ],
    "adcode":"440306",
    "pcode":"440000",
    "citycode":"0755",
    "source":"amap"
  },
  {
    "name":"深国免(B店)",
    "address":"航站四路3003号深圳机场T3候机楼国际到达厅2层2R-01-01",
    "type":"购物服务;商场;免税品店",
    "type_code":"060103",
    "lng":113.812955,
    "lat":22.626323,
    "facility_type":"market",
    "business_period":"",
    "open_time":null,
    "close_time":null,
    "is_24h":false,
    "night_ratio":0.0,
    "night_service":false,
    "tel":[

    ],
    "adcode":"440306",
    "pcode":"440000",
    "citycode":"0755",
    "source":"amap"
  },
  {
    "name":"纤佳财税",
    "address":"流塘路322号渝达一栋304号铺",
    "type":"购物服务;商场;免税品店|公司企业;公司;公司",
    "type_code":"060103|170200",
    "lng":113.893513,
    "lat":22.585683,
    "facility_type":"market",
    "business_period":"",
    "open_time":null,
    "close_time":null,
    "is_24h":false,
    "night_ratio":0.0,
    "night_service":false,
    "tel":"18973470392",
    "adcode":"440306",
    "pcode":"440000",
    "citycode":"0755",
    "source":"amap"
  },