{
"type": "FeatureCollection",
"name": "nanshan_buildings_official",
"crs": { "type": "name", "properties": { "name": "urn:ogc:def:crs:OGC:1.3:CRS84" } },
"features": [
{ "type": "Feature", "properties": { "code": "4403050070060100127", "lon_gcj02": 113.92672006, "lat_gcj02": 22.51380796, "addr": "后海天后庙", "name": "后海天后宫", "pk": "eae10302c5344c64936438e2fa1f4663", "use_type": 8, "update_year": "2022", "floors": 1, "update_status": 1, "wgs_lon": 113.94393844380922, "wgs_lat": 22.519525917859035, "use_name": "科教/education" }, "geometry": { "type": "Point", "coordinates": [ 113.943938443809216, 22.519525917859035 ] } },
{ "type": "Feature", "properties": { "code": "4403050070150100137", "lon_gcj02": 113.93143831, "lat_gcj02": 22.53687988, "addr": "南山区南海大道3688号", "name": "深圳大学档案馆", "pk": "e8aab5a56e9d4006afa62a48cadf95b0", "use_type": 8, "update_year": "2022", "floors": 6, "update_status": 1, "wgs_lon": 113.94867379179595, "wgs_lat": 22.542610131827416, "use_name": "科教/education" }, "geometry": { "type": "Point", "coordinates": [ 113.948673791795954, 22.542610131827416 ] } },
{ "type": "Feature", "properties": { "code": "4403050070101000002", "lon_gcj02": 113.93389721, "lat_gcj02": 22.54659471, "addr": "高新中四道6号", "name": "凯丽花园12栋", "pk": "e4fd700d49334c89b07d3e411bb03223", "use_type": 2, "update_year": "2022", "floors": 8, "update_status": 1, "wgs_lon": 113.95114143277729, "wgs_lat": 22.552330965219472, "use_name": "商业/commercial" }, "geometry": { "type": "Point", "coordinates": [ 113.951141432777291, 22.552330965219472 ] } },
{ "type": "Feature", "properties": { "code": "4403050070070100003", "lon_gcj02": 113.92461591, "lat_gcj02": 22.51038296, "addr": "华明路1号", "name": "海映山庄8栋", "pk": "e466a533c2e74bfa9d2e503a22d301c5", "use_type": 2, "update_year": "2022", "floors": 6, "update_status": 1, "wgs_lon": 113.94182875686124, "wgs_lat": 22.516097616518266, "use_name": "商业/commercial" }, "geometry": { "type": "Point", "coordinates": [ 113.941828756861241, 22.516097616518266 ] } },
{ "type": "Feature", "properties": { "code": "4403050070060100067", "lon_gcj02": 113.92644119000001, "lat_gcj02": 22.51211039, "addr": "后海村69号", "name": "后海村69号", "pk": "d9b8cc9fa27840d9902ea517fade008b", "use_type": 3, "update_year": "2022", "floors": 4, "update_status": 1, "wgs_lon": 113.94365851184222, "wgs_lat": 22.517827539920344, "use_name": "办公/office" }, "geometry": { "type": "Point", "coordinates": [ 113.943658511842216, 22.517827539920344 ] } },
{ "type": "Feature", "properties": { "code": "4403050070090100015", "lon_gcj02": 113.92251869, "lat_gcj02": 22.51443277, "addr": "登良路48号 龙城花园16栋", "name": "龙城花园16栋", "pk": "d7263a41dbb942349d467c70ab8593b7", "use_type": 2, "update_year": "2022", "floors": 7, "update_status": 1, "wgs_lon": 113.93972812624898, "wgs_lat": 22.520146494073298, "use_name": "商业/commercial" }, "geometry": { "type": "Point", "coordinates": [ 113.93972812624898, 22.520146494073298 ] } },
{ "type": "Feature", "properties": { "code": "4403050070020100006", "lon_gcj02": 113.92294171, "lat_gcj02": 22.51608043, "addr": "龙城路106号", "name": "粤海小区B座", "pk": "ffe464ff787e4dc990763c33f4a20c41", "use_type": 3, "update_year": "2022", "floors": 8, "update_status": 1, "wgs_lon": 113.94015244294306, "wgs_lat": 22.521795035711545, "use_name": "办公/office" }, "geometry": { "type": "Point", "coordinates": [ 113.940152442943059, 22.521795035711545 ] } },
{ "type": "Feature", "properties": { "code": "4403050070120400016", "lon_gcj02": 113.92181385000001, "lat_gcj02": 22.50984546, "addr": "建南路5号", "name": "南油A区14栋", "pk": "fef765ab3a8940d0acd7e3f6f037b17b", "use_type": 2, "update_year": "2022", "floors": 6, "update_status": 1, "wgs_lon": 113.93902067740274, "wgs_lat": 22.515557191273544, "use_name": "商业/commercial" }, "geometry": { "type": "Point", "coordinates": [ 113.939020677402738, 22.515557191273544 ] } },
{ "type": "Feature", "properties": { "code": "4403050070140400010", "lon_gcj02": 113.93109038, "lat_gcj02": 22.51223856, "addr": "华明路1号", "name": "蔚蓝海岸二期15栋", "pk": "fde1008d2db345828ae0ad23974d2163", "use_type": 2, "update_year": "2022", "floors": 12, "update_status": 1, "wgs_lon": 113.9483187337616, "wgs_lat": 22.517961481397489, "use_name": "商业/commercial" }, "geometry": { "type": "Point", "coordinates": [ 113.948318733761596, 22.517961481397489 ] } },
{ "type": "Feature", "properties": { "code": "4403050070120400011", "lon_gcj02": 113.92162347, "lat_gcj02": 22.51051471, "addr": "建南路21号", "name": "南油A区22栋", "pk": "fd02cfffa74d4d95920eceeb035368bf", "use_type": 1, "update_year": "2022", "floors": 9, "update_status": 1, "wgs_lon": 113.93883008144985, "wgs_lat": 22.516226461059144, "use_name": "住宅/residential" }, "geometry": { "type": "Point", "coordinates": [ 113.938830081449851, 22.516226461059144 ] } },
{ "type": "Feature", "properties": { "code": "4403050070120100024", "lon_gcj02": 113.92457443000001, "lat_gcj02": 22.51132681, "addr": "兴南路54号6栋", "name": "南油B区16栋", "pk": "fcd7af0e6f45402f81d72f116c9692ff", "use_type": 1, "update_year": "2022", "floors": 6, "update_status": 1, "wgs_lon": 113.94178742669821, "wgs_lat": 22.517041697620201, "use_name": "住宅/residential" }, "geometry": { "type": "Point", "coordinates": [ 113.941787426698212, 22.517041697620201 ] } },
{ "type": "Feature", "properties": { "code": "44030500700808T0025", "lon_gcj02": 113.93728043, "lat_gcj02": 22.54699518, "addr": "深圳市南山区粤海街道科技中三路6-2号", "name": "深圳市南山区粤海街道科技中三路6-2号", "pk": "fcd2a3c4582a4277b111de60dd791564", "use_type": 4, "update_year": "2022", "floors": 1, "update_status": 1, "wgs_lon": 113.95453383592518, "wgs_lat": 22.55273670214001, "use_name": "工业/industrial" }, "geometry": { "type": "Point", "coordinates": [ 113.954533835925176, 22.55273670214001 ] } },
{ "type": "Feature", "properties": { "code": "4403050070060100074", "lon_gcj02": 113.92602978, "lat_gcj02": 22.51216647, "addr": "后海村67号", "name": "后海村67号", "pk": "fc36e21cfff9443f9e29074254ce7746", "use_type": 3, "update_year": "2022", "floors": 9, "update_status": 1, "wgs_lon": 113.94324619234268, "wgs_lat": 22.517883174441348, "use_name": "办公/office" }, "geometry": { "type": "Point", "coordinates": [ 113.943246192342684, 22.517883174441348 ] } },
{ "type": "Feature", "properties": { "code": "4403050070020200001", "lon_gcj02": 113.92441639, "lat_gcj02": 22.51747427, "addr": "深圳市南山区创业路7-51号", "name": "中国建设银行南油支行", "pk": "fab14d7060984fca8eb174bb3cb3e390", "use_type": 3, "update_year": "2022", "floors": 2, "update_status": 1, "wgs_lon": 113.94163060645266, "wgs_lat": 22.52319076138647, "use_name": "办公/office" }, "geometry": { "type": "Point", "coordinates": [ 113.941630606452662, 22.52319076138647 ] } },
{ "type": "Feature", "properties": { "code": "4403050070150100084", "lon_gcj02": 113.92671398, "lat_gcj02": 22.52978748, "addr": "南海大道3688号", "name": "苏铁轩", "pk": "f93e25cc784b4e8f8f8c6aca57429dd8", "use_type": 2, "update_year": "2022", "floors": 6, "update_status": 1, "wgs_lon": 113.94393641024928, "wgs_lat": 22.535509921678706, "use_name": "商业/commercial" }, "geometry": { "type": "Point", "coordinates": [ 113.943936410249279, 22.535509921678706 ] } },
{ "type": "Feature", "properties": { "code": "4403050070060100124", "lon_gcj02": 113.92599701, "lat_gcj02": 22.51094056, "addr": "后海村1号", "name": "后海村1号", "pk": "f75e0d79da14425892e86acf259a3c17", "use_type": 2, "update_year": "2022", "floors": 6, "update_status": 1, "wgs_lon": 113.94321303774866, "wgs_lat": 22.516656872051662, "use_name": "商业/commercial" }, "geometry": { "type": "Point", "coordinates": [ 113.943213037748663, 22.516656872051662 ] } },
{ "type": "Feature", "properties": { "code": "4403050070050700001", "lon_gcj02": 113.92918454, "lat_gcj02": 22.52154637, "addr": "海德三道199号", "name": "天利中央广场", "pk": "f5a83b7a6c0848938f72a8b8e94cd60d", "use_type": 4, "update_year": "2022", "floors": 33, "update_status": 1, "wgs_lon": 113.94641062587307, "wgs_lat": 22.52726948378502, "use_name": "工业/industrial" }, "geometry": { "type": "Point", "coordinates": [ 113.946410625873071, 22.52726948378502 ] } },
{ "type": "Feature", "properties": { "code": "4403050070060100029", "lon_gcj02": 113.92648034, "lat_gcj02": 22.51317282, "addr": "后海村136号", "name": "后海村136号", "pk": "f43175e1d6114321928b3eb2d901e7cd", "use_type": 2, "update_year": "2022", "floors": 4, "update_status": 1, "wgs_lon": 113.94369802003102, "wgs_lat": 22.518890321665634, "use_name": "商业/commercial" }, "geometry": { "type": "Point", "coordinates": [ 113.943698020031022, 22.518890321665634 ] } },
{ "type": "Feature", "properties": { "code": "4403050070140400021", "lon_gcj02": 113.93030103, "lat_gcj02": 22.50977801, "addr": "华明路1号", "name": "蔚蓝海岸一期10栋", "pk": "f0f79e701065466e9b721104d4ca16c7", "use_type": 2, "update_year": "2022", "floors": 13, "update_status": 1, "wgs_lon": 113.94752681904912, "wgs_lat": 22.515499175740285, "use_name": "商业/commercial" }, "geometry": { "type": "Point", "coordinates": [ 113.947526819049116, 22.515499175740285 ] } },
{ "type": "Feature", "properties": { "code": "4403050070160500005", "lon_gcj02": 113.92683282, "lat_gcj02": 22.52914586, "addr": "桂庙新村28号", "name": "桂庙新村28号", "pk": "e2e83ca010cd47ff8dad897e7a77c618", "use_type": 1, "update_year": "2022", "floors": 4, "update_status": 1, "wgs_lon": 113.94405535710838, "wgs_lat": 22.534868262027622, "use_name": "住宅/residential" }, "geometry": { "type": "Point", "coordinates": [ 113.944055357108383, 22.534868262027622 ] } },
{ "type": "Feature", "properties": { "code": "4403050070150100111", "lon_gcj02": 113.92921165, "lat_gcj02": 22.53735446, "addr": "南山区南海大道3688号", "name": "深大教工餐厅", "pk": "e279067dcb9443d38d000386e3a4ab7c", "use_type": 8, "update_year": "2022", "floors": 3, "update_status": 1, "wgs_lon": 113.94644181902639, "wgs_lat": 22.543081940654577, "use_name": "科教/education" }, "geometry": { "type": "Point", "coordinates": [ 113.94644181902639, 22.543081940654577 ] } },
{ "type": "Feature", "properties": { "code": "4403050070051500005", "lon_gcj02": 113.93204739, "lat_gcj02": 22.51783676, "addr": "创业路4号", "name": "观海台花园7栋", "pk": "e02a1bc7037847babfbbb35f33cb2484", "use_type": 2, "update_year": "2022", "floors": 11, "update_status": 1, "wgs_lon": 113.94927955713558, "wgs_lat": 22.523562586097331, "use_name": "商业/commercial" }, "geometry": { "type": "Point", "coordinates": [ 113.949279557135583, 22.523562586097331 ] } },
{ "type": "Feature", "properties": { "code": "4403050070060100126", "lon_gcj02": 113.92631972, "lat_gcj02": 22.51103326, "addr": "后海村7号", "name": "后海村7号", "pk": "ddcd6a7e643d4df5bfff5e9e03422559", "use_type": 2, "update_year": "2022", "floors": 7, "update_status": 1, "wgs_lon": 113.94353649467696, "wgs_lat": 22.516749960095805, "use_name": "商业/commercial" }, "geometry": { "type": "Point", "coordinates": [ 113.943536494676962, 22.516749960095805 ] } },
{ "type": "Feature", "properties": { "code": "4403050070020400008", "lon_gcj02": 113.92707229, "lat_gcj02": 22.51697685, "addr": "后海大道2491号", "name": "荣泰综合楼", "pk": "ddace182685542afa2b84b510c3d14be", "use_type": 4, "update_year": "2022", "floors": 3, "update_status": 1, "wgs_lon": 113.94429228085846, "wgs_lat": 22.522696122447751, "use_name": "工业/industrial" }, "geometry": { "type": "Point", "coordinates": [ 113.944292280858463, 22.522696122447751 ] } },
{ "type": "Feature", "properties": { "code": "4403050070060100148", "lon_gcj02": 113.92664331, "lat_gcj02": 22.51191295, "addr": "后海村56号B", "name": "后海村56号B", "pk": "dbbbac00793e4c0e8b1e45a19e7c8f94", "use_type": 2, "update_year": "2022", "floors": 7, "update_status": 1, "wgs_lon": 113.94386103848778, "wgs_lat": 22.517630272259435, "use_name": "商业/commercial" }, "geometry": { "type": "Point", "coordinates": [ 113.943861038487782, 22.517630272259435 ] } },
{ "type": "Feature", "properties": { "code": "4403050070060100087", "lon_gcj02": 113.92599907, "lat_gcj02": 22.51200969, "addr": "后海村52号B", "name": "后海村52号B", "pk": "dbaa4336b6754d2e9d120bc4de55a294", "use_type": 2, "update_year": "2022", "floors": 6, "update_status": 1, "wgs_lon": 113.94321537389426, "wgs_lat": 22.517726314831698, "use_name": "商业/commercial" }, "geometry": { "type": "Point", "coordinates": [ 113.943215373894262, 22.517726314831698 ] } },
{ "type": "Feature", "properties": { "code": "4403050070060200017", "lon_gcj02": 113.92702362, "lat_gcj02": 22.510302, "addr": "后海第三统建楼", "name": "后海第三统建楼", "pk": "db8eecc67fb84b79bbdbfe79ca9d57c2", "use_type": 3, "update_year": "2022", "floors": 8, "update_status": 1, "wgs_lon": 113.94424180411796, "wgs_lat": 22.516019290747817, "use_name": "办公/office" }, "geometry": { "type": "Point", "coordinates": [ 113.944241804117965, 22.516019290747817 ] } },
{ "type": "Feature", "properties": { "code": "4403050070060100030", "lon_gcj02": 113.92663866, "lat_gcj02": 22.51318052, "addr": "后海村131号", "name": "后海村131", "pk": "d160928fe2834a09a03f7345679dcb9e", "use_type": 1, "update_year": "2022", "floors": 7, "update_status": 1, "wgs_lon": 113.94385669992737, "wgs_lat": 22.518898203841569, "use_name": "住宅/residential" }, "geometry": { "type": "Point", "coordinates": [ 113.943856699927366, 22.518898203841569 ] } },
{ "type": "Feature", "properties": { "code": "4403050070120400024", "lon_gcj02": 113.92146557, "lat_gcj02": 22.51015371, "addr": "南山区建南路15号", "name": "建南路15号垃圾房", "pk": "cfc5ab672f4141e68585fe997e71c836", "use_type": 8, "update_year": "2022", "floors": 1, "update_status": 1, "wgs_lon": 113.93867177108365, "wgs_lat": 22.515865211636832, "use_name": "科教/education" }, "geometry": { "type": "Point", "coordinates": [ 113.938671771083648, 22.515865211636832 ] } },
{ "type": "Feature", "properties": { "code": "4403050070060100149", "lon_gcj02": 113.92669941, "lat_gcj02": 22.51190651, "addr": "后海村56号C", "name": "后海村56号C", "pk": "ce9211ed6c54484ca0dbda594f7a3297", "use_type": 2, "update_year": "2022", "floors": 11, "update_status": 1, "wgs_lon": 113.94391726398608, "wgs_lat": 22.517623894433783, "use_name": "商业/commercial" }, "geometry": { "type": "Point", "coordinates": [ 113.94391726398608, 22.517623894433783 ] } },
{ "type": "Feature", "properties": { "code": "4403050070090100016", "lon_gcj02": 113.92288921, "lat_gcj02": 22.51444584, "addr": "登良路48号 龙城花园15栋", "name": "龙城花园15栋", "pk": "cc309c636f9c47caa61248908aef236a", "use_type": 2, "update_year": "2022", "floors": 7, "update_status": 1, "wgs_lon": 113.94009941833968, "wgs_lat": 22.520159925469571, "use_name": "商业/commercial" }, "geometry": { "type": "Point", "coordinates": [ 113.940099418339685, 22.520159925469571 ] } },
{ "type": "Feature", "properties": { "code": "4403050070150100145", "lon_gcj02": 113.93427825000001, "lat_gcj02": 22.53696448, "addr": "2#宿舍", "name": "2#宿舍", "pk": "cb163a7ba61949358e21132e7569eaa0", "use_type": 2, "update_year": "2022", "floors": 10, "update_status": 1, "wgs_lon": 113.95152101943187, "wgs_lat": 22.542698760354728, "use_name": "商业/commercial" }, "geometry": { "type": "Point", "coordinates": [ 113.951521019431866, 22.542698760354728 ] } },
{ "type": "Feature", "properties": { "code": "4403050070051500001", "lon_gcj02": 113.93187938, "lat_gcj02": 22.51820534, "addr": "创业路4号", "name": "观海台花园A栋", "pk": "c4c48bd88e584005b5e1846d0a7e5e7f", "use_type": 2, "update_year": "2022", "floors": 18, "update_status": 1, "wgs_lon": 113.94911121798742, "wgs_lat": 22.523931040389428, "use_name": "商业/commercial" }, "geometry": { "type": "Point", "coordinates": [ 113.949111217987422, 22.523931040389428 ] } },
{ "type": "Feature", "properties": { "code": "4403050070060100017", "lon_gcj02": 113.9264193, "lat_gcj02": 22.5137319, "addr": "后海村149号", "name": "后海村149号", "pk": "c23e75e2714445c0b70d50afc0f25f65", "use_type": 2, "update_year": "2022", "floors": 4, "update_status": 1, "wgs_lon": 113.94363698436077, "wgs_lat": 22.519449493940144, "use_name": "商业/commercial" }, "geometry": { "type": "Point", "coordinates": [ 113.943636984360765, 22.519449493940144 ] } },
{ "type": "Feature", "properties": { "code": "4403050070160300003", "lon_gcj02": 113.92828893, "lat_gcj02": 22.52975195, "addr": "桂庙新村103号", "name": "桂庙新村103号", "pk": "be077ca7b5e0456fb8b804e7a1fbdc60", "use_type": 2, "update_year": "2022", "floors": 7, "update_status": 1, "wgs_lon": 113.94551498334729, "wgs_lat": 22.535476237457438, "use_name": "商业/commercial" }, "geometry": { "type": "Point", "coordinates": [ 113.945514983347294, 22.535476237457438 ] } },
{ "type": "Feature", "properties": { "code": "4403050070070200015", "lon_gcj02": 113.92607064000001, "lat_gcj02": 22.50838992, "addr": "兴南路52号", "name": "南海花园A09栋", "pk": "bd492fac2ba34930a13364d57c621e8c", "use_type": 2, "update_year": "2022", "floors": 2, "update_status": 1, "wgs_lon": 113.94328618456852, "wgs_lat": 22.514105569090159, "use_name": "商业/commercial" }, "geometry": { "type": "Point", "coordinates": [ 113.943286184568521, 22.514105569090159 ] } },
{ "type": "Feature", "properties": { "code": "4403050070070200003", "lon_gcj02": 113.92487509, "lat_gcj02": 22.50845817, "addr": "兴南路52号", "name": "南海花园海丰阁", "pk": "bbcbb511e1a1493f99c681c91cd335f5", "use_type": 2, "update_year": "2022", "floors": 3, "update_status": 1, "wgs_lon": 113.94208801141509, "wgs_lat": 22.51417253769775, "use_name": "商业/commercial" }, "geometry": { "type": "Point", "coordinates": [ 113.942088011415095, 22.51417253769775 ] } },
{ "type": "Feature", "properties": { "code": "4403050070110400010", "lon_gcj02": 113.92792004, "lat_gcj02": 22.50984126, "addr": "后海大道2008号城脉地产深圳湾公馆", "name": "城脉地产深圳湾公馆", "pk": "bb7aa06802e6479c9267761015db7a99", "use_type": 3, "update_year": "2022", "floors": 54, "update_status": 1, "wgs_lon": 113.9451401728379, "wgs_lat": 22.515559471289905, "use_name": "办公/office" }, "geometry": { "type": "Point", "coordinates": [ 113.945140172837895, 22.515559471289905 ] } },
{ "type": "Feature", "properties": { "code": "4403050070160200043", "lon_gcj02": 113.93665436000001, "lat_gcj02": 22.53573831, "addr": "白石路3818号", "name": "阳光粤海花园二期3栋", "pk": "bb0f7c3562864d1bb1ce2663a9e42c74", "use_type": 4, "update_year": "2022", "floors": 39, "update_status": 1, "wgs_lon": 113.95390318189823, "wgs_lat": 22.541475876247368, "use_name": "工业/industrial" }, "geometry": { "type": "Point", "coordinates": [ 113.953903181898227, 22.541475876247368 ] } },
{ "type": "Feature", "properties": { "code": "4403050070020100005", "lon_gcj02": 113.9229815, "lat_gcj02": 22.51640961, "addr": "龙城路108号", "name": "粤海小区C座", "pk": "ba05969145284d09a32987dd6a559cfb", "use_type": 3, "update_year": "2022", "floors": 8, "update_status": 1, "wgs_lon": 113.9401923996043, "wgs_lat": 22.522124348745795, "use_name": "办公/office" }, "geometry": { "type": "Point", "coordinates": [ 113.9401923996043, 22.522124348745795 ] } },
{ "type": "Feature", "properties": { "code": "4403050070051500004", "lon_gcj02": 113.932215, "lat_gcj02": 22.51726695, "addr": "创业路4号", "name": "观海台花园5、3、1栋", "pk": "b9f30737738940228c2ad9334a130d8a", "use_type": 2, "update_year": "2022", "floors": 9, "update_status": 1, "wgs_lon": 113.94944744544433, "wgs_lat": 22.522992844978667, "use_name": "商业/commercial" }, "geometry": { "type": "Point", "coordinates": [ 113.949447445444335, 22.522992844978667 ] } },
{ "type": "Feature", "properties": { "code": "4403050070120100008", "lon_gcj02": 113.92572578, "lat_gcj02": 22.51399258, "addr": "后海工业区13栋", "name": "后海工业区13栋", "pk": "b897935b846742a5a4f2741ffb59279a", "use_type": 5, "update_year": "2022", "floors": 4, "update_status": 1, "wgs_lon": 113.9429419788123, "wgs_lat": 22.519709475729517, "use_name": "公共/public" }, "geometry": { "type": "Point", "coordinates": [ 113.9429419788123, 22.519709475729517 ] } },
{ "type": "Feature", "properties": { "code": "4403050070060100010", "lon_gcj02": 113.92572459, "lat_gcj02": 22.51142992, "addr": "后海工业区S3栋", "name": "后海工业区S3栋", "pk": "b6efb64f912e4c2bafd19c7a3dfb6dc4", "use_type": 1, "update_year": "2022", "floors": 7, "update_status": 1, "wgs_lon": 113.94294013527423, "wgs_lat": 22.517146073072311, "use_name": "住宅/residential" }, "geometry": { "type": "Point", "coordinates": [ 113.942940135274227, 22.517146073072311 ] } },
{ "type": "Feature", "properties": { "code": "4403050070150100068", "lon_gcj02": 113.9285497, "lat_gcj02": 22.53093201, "addr": "南海大道3688号", "name": "襟山楼", "pk": "b4e62b90b46943fc92880ba9861e6d24", "use_type": 2, "update_year": "2022", "floors": 6, "update_status": 1, "wgs_lon": 113.94577666610789, "wgs_lat": 22.536656937681677, "use_name": "商业/commercial" }, "geometry": { "type": "Point", "coordinates": [ 113.945776666107889, 22.536656937681677 ] } },
{ "type": "Feature", "properties": { "code": "4403050070060100120", "lon_gcj02": 113.92644207, "lat_gcj02": 22.51142491, "addr": "后海村16号", "name": "后海村16号", "pk": "99994b0e2e9d476e8bbd24dae6a47d69", "use_type": 2, "update_year": "2022", "floors": 9, "update_status": 1, "wgs_lon": 113.94365921971766, "wgs_lat": 22.517141862025607, "use_name": "商业/commercial" }, "geometry": { "type": "Point", "coordinates": [ 113.943659219717659, 22.517141862025607 ] } },
{ "type": "Feature", "properties": { "code": "4403050070110300009", "lon_gcj02": 113.92884592, "lat_gcj02": 22.51270156, "addr": "登良路7-40", "name": "招商名仕花园14栋", "pk": "9778ab1aa82349ef8538ea4fe4b13969", "use_type": 3, "update_year": "2022", "floors": 7, "update_status": 1, "wgs_lon": 113.94606895326997, "wgs_lat": 22.518421729134246, "use_name": "办公/office" }, "geometry": { "type": "Point", "coordinates": [ 113.946068953269972, 22.518421729134246 ] } },
{ "type": "Feature", "properties": { "code": "4403050070120400015", "lon_gcj02": 113.92183736, "lat_gcj02": 22.51007229, "addr": "建南路5号", "name": "南油A区15栋", "pk": "8d948a8ea2a44f9e97eecd490d82731f", "use_type": 2, "update_year": "2022", "floors": 6, "update_status": 1, "wgs_lon": 113.93904429277016, "wgs_lat": 22.515784109228111, "use_name": "商业/commercial" }, "geometry": { "type": "Point", "coordinates": [ 113.939044292770163, 22.515784109228111 ] } },
{ "type": "Feature", "properties": { "code": "4403050070120500013", "lon_gcj02": 113.92378191, "lat_gcj02": 22.50892762, "addr": "东滨路3036号", "name": "南油文化广场", "pk": "8c058a41fd384d258cc2f7b6549035f9", "use_type": 1, "update_year": "2022", "floors": 4, "update_status": 1, "wgs_lon": 113.94099259654294, "wgs_lat": 22.51464099082461, "use_name": "住宅/residential" }, "geometry": { "type": "Point", "coordinates": [ 113.940992596542941, 22.51464099082461 ] } },
{ "type": "Feature", "properties": { "code": "4403050070070200004", "lon_gcj02": 113.92507636000001, "lat_gcj02": 22.50846202, "addr": "兴南路52号", "name": "南海花园海威阁", "pk": "8a1d2e08efae40ce91e4509ef99f3403", "use_type": 2, "update_year": "2022", "floors": 3, "update_status": 1, "wgs_lon": 113.94228972209977, "wgs_lat": 22.514176603478209, "use_name": "商业/commercial" }, "geometry": { "type": "Point", "coordinates": [ 113.942289722099773, 22.514176603478209 ] } },
{ "type": "Feature", "properties": { "code": "4403050070041900013", "lon_gcj02": 113.93435744, "lat_gcj02": 22.53013817, "addr": "白石路3883号深圳大学南校区", "name": "深圳大学医学院", "pk": "b4e3df4c8746405fa9f622e7eb3e77b4", "use_type": 9, "update_year": "2022", "floors": 7, "update_status": 1, "wgs_lon": 113.95159868120776, "wgs_lat": 22.535870721258256, "use_name": "其他/other" }, "geometry": { "type": "Point", "coordinates": [ 113.951598681207756, 22.535870721258256 ] } },
{ "type": "Feature", "properties": { "code": "4403050070060100065", "lon_gcj02": 113.92642579, "lat_gcj02": 22.51221451, "addr": "后海村74号", "name": "后海村74号", "pk": "b38ec2256d804f66b29e8152725bc76d", "use_type": 2, "update_year": "2022", "floors": 4, "update_status": 1, "wgs_lon": 113.94364310356454, "wgs_lat": 22.517931672674688, "use_name": "商业/commercial" }, "geometry": { "type": "Point", "coordinates": [ 113.94364310356454, 22.517931672674688 ] } },
{ "type": "Feature", "properties": { "code": "4403050070020100008", "lon_gcj02": 113.9235418, "lat_gcj02": 22.5173031, "addr": "创业路9号", "name": "金海岸大厦", "pk": "b2f46ed9903a44a3b245330b88a7cac8", "use_type": 3, "update_year": "2022", "floors": 30, "update_status": 1, "wgs_lon": 113.94075410425509, "wgs_lat": 22.523018648633922, "use_name": "办公/office" }, "geometry": { "type": "Point", "coordinates": [ 113.940754104255092, 22.523018648633922 ] } },
{ "type": "Feature", "properties": { "code": "4403050070080200009", "lon_gcj02": 113.93952529000001, "lat_gcj02": 22.55335158, "addr": "长园新材料港B栋", "name": "长园新材料港2栋", "pk": "af6f7f0fdc014eceaa3690a4118ea0a7", "use_type": 5, "update_year": "2022", "floors": 5, "update_status": 1, "wgs_lon": 113.95678662454587, "wgs_lat": 22.559098414083753, "use_name": "公共/public" }, "geometry": { "type": "Point", "coordinates": [ 113.95678662454587, 22.559098414083753 ] } },
{ "type": "Feature", "properties": { "code": "4403050070140400029", "lon_gcj02": 113.93190885, "lat_gcj02": 22.51055554, "addr": "华明路1号", "name": "蔚蓝海岸二期21栋", "pk": "ad6c40f0951c4b5c823583aebc60ed47", "use_type": 2, "update_year": "2022", "floors": 30, "update_status": 1, "wgs_lon": 113.94913881810442, "wgs_lat": 22.516279079318267, "use_name": "商业/commercial" }, "geometry": { "type": "Point", "coordinates": [ 113.949138818104416, 22.516279079318267 ] } },
{ "type": "Feature", "properties": { "code": "4403050070150100013", "lon_gcj02": 113.93358467, "lat_gcj02": 22.54120769, "addr": "南海大道3688号", "name": "建筑与土木工程学院", "pk": "ab17caec26c64c888dd56b60fb912046", "use_type": 1, "update_year": "2022", "floors": 5, "update_status": 1, "wgs_lon": 113.95082670974897, "wgs_lat": 22.546942086323771, "use_name": "住宅/residential" }, "geometry": { "type": "Point", "coordinates": [ 113.950826709748966, 22.546942086323771 ] } },
{ "type": "Feature", "properties": { "code": "4403050070140300012", "lon_gcj02": 113.93414086, "lat_gcj02": 22.50962775, "addr": "兰香一街8号", "name": "新百丽大厦", "pk": "aabd2632cc8c47a1971bf16284c899e5", "use_type": 4, "update_year": "2022", "floors": 35, "update_status": 1, "wgs_lon": 113.95137631920993, "wgs_lat": 22.515354183008945, "use_name": "工业/industrial" }, "geometry": { "type": "Point", "coordinates": [ 113.951376319209928, 22.515354183008945 ] } },
{ "type": "Feature", "properties": { "code": "4403050070010200011", "lon_gcj02": 113.92714185, "lat_gcj02": 22.52747517, "addr": "学府路99号", "name": "学林雅院3栋", "pk": "aa80666764254990be989b01c01db1ca", "use_type": 2, "update_year": "2022", "floors": 7, "update_status": 1, "wgs_lon": 113.94436466758549, "wgs_lat": 22.533197469472825, "use_name": "商业/commercial" }, "geometry": { "type": "Point", "coordinates": [ 113.944364667585489, 22.533197469472825 ] } },
{ "type": "Feature", "properties": { "code": "4403050070060100121", "lon_gcj02": 113.92649863, "lat_gcj02": 22.51134867, "addr": "后海小庙", "name": "后海小庙", "pk": "a855a59bcc804662be4667c54c11a9b9", "use_type": 8, "update_year": "2022", "floors": 1, "update_status": 1, "wgs_lon": 113.94371588798448, "wgs_lat": 22.517065663943523, "use_name": "科教/education" }, "geometry": { "type": "Point", "coordinates": [ 113.943715887984482, 22.517065663943523 ] } },
{ "type": "Feature", "properties": { "code": "4403050070140400014", "lon_gcj02": 113.93099298, "lat_gcj02": 22.51116889, "addr": "华明路1号", "name": "蔚蓝海岸二期8栋、9栋", "pk": "a77014cd00574b3d94b1f3078249b659", "use_type": 2, "update_year": "2022", "floors": 19, "update_status": 1, "wgs_lon": 113.9482208210695, "wgs_lat": 22.516891371179437, "use_name": "商业/commercial" }, "geometry": { "type": "Point", "coordinates": [ 113.948220821069498, 22.516891371179437 ] } },
{ "type": "Feature", "properties": { "code": "4403050070060100075", "lon_gcj02": 113.92617185, "lat_gcj02": 22.51214267, "addr": "后海村68号", "name": "后海村68号", "pk": "a6dab9ddda3b484f8cc9a31a91c6d095", "use_type": 2, "update_year": "2022", "floors": 8, "update_status": 1, "wgs_lon": 113.94338857437101, "wgs_lat": 22.51785952614555, "use_name": "商业/commercial" }, "geometry": { "type": "Point", "coordinates": [ 113.943388574371014, 22.51785952614555 ] } },
{ "type": "Feature", "properties": { "code": "44030500701604T0001", "lon_gcj02": 113.93091891, "lat_gcj02": 22.53018904, "addr": "桂庙新村牌坊旁铁皮房", "name": "桂庙新村牌坊旁铁皮房", "pk": "958bec83143e46108f576b393f94300e", "use_type": 3, "update_year": "2022", "floors": 2, "update_status": 1, "wgs_lon": 113.94815140223747, "wgs_lat": 22.535916787442705, "use_name": "办公/office" }, "geometry": { "type": "Point", "coordinates": [ 113.948151402237471, 22.535916787442705 ] } },
{ "type": "Feature", "properties": { "code": "4403050070020100011", "lon_gcj02": 113.92359802, "lat_gcj02": 22.51589155, "addr": "南商路91号", "name": "深蓝公寓", "pk": "9521938bf0e04243b5be1ec0039e2b47", "use_type": 3, "update_year": "2022", "floors": 32, "update_status": 1, "wgs_lon": 113.94081008474467, "wgs_lat": 22.521606751719091, "use_name": "办公/office" }, "geometry": { "type": "Point", "coordinates": [ 113.940810084744669, 22.521606751719091 ] } },
{ "type": "Feature", "properties": { "code": "4403050070010300003", "lon_gcj02": 113.92790613, "lat_gcj02": 22.52777593, "addr": "勤学路8号", "name": "锦隆花园锦隆幼儿园", "pk": "91baae8685db4cd0a1af096cb35e0824", "use_type": 1, "update_year": "2022", "floors": 3, "update_status": 1, "wgs_lon": 113.94513078740368, "wgs_lat": 22.533499213599786, "use_name": "住宅/residential" }, "geometry": { "type": "Point", "coordinates": [ 113.945130787403684, 22.533499213599786 ] } },
{ "type": "Feature", "properties": { "code": "4403050070020400006", "lon_gcj02": 113.92642398, "lat_gcj02": 22.51657514, "addr": "龙城路4号", "name": "云海天城知行世家幼儿园", "pk": "879260ab68e14a6f8cfdf25fd9563633", "use_type": 7, "update_year": "2022", "floors": 2, "update_status": 1, "wgs_lon": 113.94364239716674, "wgs_lat": 22.522293555434249, "use_name": "混合/mixed" }, "geometry": { "type": "Point", "coordinates": [ 113.943642397166741, 22.522293555434249 ] } },
{ "type": "Feature", "properties": { "code": "4403050070020100009", "lon_gcj02": 113.92379849, "lat_gcj02": 22.51675517, "addr": "南商路97号", "name": "华英大厦", "pk": "8773c08b5f4e469f81319a7efe6318ee", "use_type": 7, "update_year": "2022", "floors": 11, "update_status": 1, "wgs_lon": 113.94101119970952, "wgs_lat": 22.522470821117874, "use_name": "混合/mixed" }, "geometry": { "type": "Point", "coordinates": [ 113.941011199709521, 22.522470821117874 ] } },
{ "type": "Feature", "properties": { "code": "4403050070060100092", "lon_gcj02": 113.92596596, "lat_gcj02": 22.51161517, "addr": "后海村33号", "name": "后海村33号", "pk": "84f2556b95fe461199fc8ec774c93776", "use_type": 2, "update_year": "2022", "floors": 8, "update_status": 1, "wgs_lon": 113.94318208975068, "wgs_lat": 22.517331643589479, "use_name": "商业/commercial" }, "geometry": { "type": "Point", "coordinates": [ 113.943182089750678, 22.517331643589479 ] } },
{ "type": "Feature", "properties": { "code": "4403050070060200010", "lon_gcj02": 113.92602991, "lat_gcj02": 22.50981783, "addr": "华明路17号", "name": "怡海花园7栋", "pk": "84812398deca4d06baf19fd396c94dac", "use_type": 2, "update_year": "2022", "floors": 7, "update_status": 1, "wgs_lon": 113.94324572612106, "wgs_lat": 22.515533851477294, "use_name": "商业/commercial" }, "geometry": { "type": "Point", "coordinates": [ 113.943245726121063, 22.515533851477294 ] } },
{ "type": "Feature", "properties": { "code": "44030500701202T0011", "lon_gcj02": 113.92127977, "lat_gcj02": 22.51228686, "addr": "深圳市地铁9号线西延线南油站项目临建(宿舍四栋）", "name": "深圳市地铁9号线西延线南油站项目临建(宿舍四栋）", "pk": "840afdef5268462fb04b426fab61c122", "use_type": 2, "update_year": "2022", "floors": 2, "update_status": 1, "wgs_lon": 113.93848613923977, "wgs_lat": 22.517998813360798, "use_name": "商业/commercial" }, "geometry": { "type": "Point", "coordinates": [ 113.938486139239771, 22.517998813360798 ] } },
{ "type": "Feature", "properties": { "code": "4403050070060100105", "lon_gcj02": 113.92598902, "lat_gcj02": 22.51147894, "addr": "后海村32号", "name": "后海村32号", "pk": "8155d049dbc84d75a137f2bf3adeda7e", "use_type": 2, "update_year": "2022", "floors": 4, "update_status": 1, "wgs_lon": 113.94320516664125, "wgs_lat": 22.517195399652817, "use_name": "商业/commercial" }, "geometry": { "type": "Point", "coordinates": [ 113.943205166641249, 22.517195399652817 ] } },
{ "type": "Feature", "properties": { "code": "4403050070110100010", "lon_gcj02": 113.92882438, "lat_gcj02": 22.51535446, "addr": "粤琴一路22号", "name": "天海花园1栋", "pk": "8038026ea1ba43269bdb3309379a5182", "use_type": 2, "update_year": "2022", "floors": 7, "update_status": 1, "wgs_lon": 113.94604803622398, "wgs_lat": 22.521075366780092, "use_name": "商业/commercial" }, "geometry": { "type": "Point", "coordinates": [ 113.946048036223985, 22.521075366780092 ] } },
{ "type": "Feature", "properties": { "code": "4403050070100400012", "lon_gcj02": 113.93073883, "lat_gcj02": 22.55233851, "addr": "高新中一道19号", "name": "赛百诺饭堂", "pk": "80134d0a150e488e9ee1fcb7363af38a", "use_type": 4, "update_year": "2022", "floors": 1, "update_status": 1, "wgs_lon": 113.94797651194916, "wgs_lat": 22.558071853879454, "use_name": "工业/industrial" }, "geometry": { "type": "Point", "coordinates": [ 113.947976511949165, 22.558071853879454 ] } },
{ "type": "Feature", "properties": { "code": "4403050070060100070", "lon_gcj02": 113.92655853, "lat_gcj02": 22.51232257, "addr": "后海村80号", "name": "后海村80号", "pk": "7fddce6368584b31b0bb615e83766324", "use_type": 2, "update_year": "2022", "floors": 8, "update_status": 1, "wgs_lon": 113.94377617068895, "wgs_lat": 22.518039914460587, "use_name": "商业/commercial" }, "geometry": { "type": "Point", "coordinates": [ 113.943776170688949, 22.518039914460587 ] } },
{ "type": "Feature", "properties": { "code": "4403050070060100028", "lon_gcj02": 113.92649852, "lat_gcj02": 22.51322223, "addr": "后海村137号", "name": "后海村137号", "pk": "7fce11ee0958434ba18785852e58d453", "use_type": 2, "update_year": "2022", "floors": 6, "update_status": 1, "wgs_lon": 113.94371625362314, "wgs_lat": 22.518939766545287, "use_name": "商业/commercial" }, "geometry": { "type": "Point", "coordinates": [ 113.943716253623137, 22.518939766545287 ] } },
{ "type": "Feature", "properties": { "code": "4403050070150100020", "lon_gcj02": 113.92696325, "lat_gcj02": 22.53149434, "addr": "南海大道3688号", "name": "花圃办公室", "pk": "7fa401df882d4cd8947df432f48ed3bf", "use_type": 7, "update_year": "2022", "floors": 2, "update_status": 1, "wgs_lon": 113.94418668105659, "wgs_lat": 22.537217534072997, "use_name": "混合/mixed" }, "geometry": { "type": "Point", "coordinates": [ 113.944186681056593, 22.537217534072997 ] } },
{ "type": "Feature", "properties": { "code": "4403050070051300002", "lon_gcj02": 113.92944061, "lat_gcj02": 22.51891458, "addr": "后海大道2712号", "name": "乐安居家具", "pk": "7f6ea4bc34f54ba5badb605369af788f", "use_type": 4, "update_year": "2022", "floors": 4, "update_status": 1, "wgs_lon": 113.94666663963021, "wgs_lat": 22.524637272422908, "use_name": "工业/industrial" }, "geometry": { "type": "Point", "coordinates": [ 113.946666639630209, 22.524637272422908 ] } },
{ "type": "Feature", "properties": { "code": "44030500701205T0001", "lon_gcj02": 113.92272069000001, "lat_gcj02": 22.50970378, "addr": "南商路", "name": "南商路", "pk": "7d6ebc55ebf84dc2b85ad74b8e4038bc", "use_type": 4, "update_year": "2022", "floors": 1, "update_status": 1, "wgs_lon": 113.93992934367573, "wgs_lat": 22.515416327489202, "use_name": "工业/industrial" }, "geometry": { "type": "Point", "coordinates": [ 113.939929343675729, 22.515416327489202 ] } },
{ "type": "Feature", "properties": { "code": "4403050070120300011", "lon_gcj02": 113.92329147, "lat_gcj02": 22.51121658, "addr": "华明路4号", "name": "南乐雅苑管理处", "pk": "7a9d28deb69740639caaf81b94744c67", "use_type": 1, "update_year": "2022", "floors": 1, "update_status": 1, "wgs_lon": 113.9405017004283, "wgs_lat": 22.516930126859194, "use_name": "住宅/residential" }, "geometry": { "type": "Point", "coordinates": [ 113.9405017004283, 22.516930126859194 ] } },
{ "type": "Feature", "properties": { "code": "4403050070140500001", "lon_gcj02": 113.93079038, "lat_gcj02": 22.50932438, "addr": "东滨路北师大南山附中", "name": "接待大厅", "pk": "784228bb9215454da6563ebd21381897", "use_type": 8, "update_year": "2022", "floors": 6, "update_status": 1, "wgs_lon": 113.94801725276257, "wgs_lat": 22.515046054780758, "use_name": "科教/education" }, "geometry": { "type": "Point", "coordinates": [ 113.948017252762568, 22.515046054780758 ] } },
{ "type": "Feature", "properties": { "code": "4403050070010200012", "lon_gcj02": 113.92591755, "lat_gcj02": 22.52724339, "addr": "学海路1号", "name": "海文花园海天阁A.B", "pk": "77717a6d8d4745b6b8e662499ae43c3c", "use_type": 2, "update_year": "2022", "floors": 11, "update_status": 1, "wgs_lon": 113.94313754216603, "wgs_lat": 22.532964235536923, "use_name": "商业/commercial" }, "geometry": { "type": "Point", "coordinates": [ 113.943137542166028, 22.532964235536923 ] } },
{ "type": "Feature", "properties": { "code": "4403050070160600023", "lon_gcj02": 113.92949996, "lat_gcj02": 22.52860178, "addr": "桂庙新村56-1号", "name": "桂庙新村56-1号", "pk": "76277098f33a4bcf9fabbf63bed9c8a4", "use_type": 2, "update_year": "2022", "floors": 7, "update_status": 1, "wgs_lon": 113.94672859411114, "wgs_lat": 22.534327252651313, "use_name": "商业/commercial" }, "geometry": { "type": "Point", "coordinates": [ 113.946728594111136, 22.534327252651313 ] } },
{ "type": "Feature", "properties": { "code": "4403050070060100125", "lon_gcj02": 113.92621276, "lat_gcj02": 22.51096272, "addr": "后海村2号", "name": "后海村2号", "pk": "73710783afce419d878b9d8bc0aff004", "use_type": 2, "update_year": "2022", "floors": 5, "update_status": 1, "wgs_lon": 113.94342927644641, "wgs_lat": 22.516679279391155, "use_name": "商业/commercial" }, "geometry": { "type": "Point", "coordinates": [ 113.943429276446409, 22.516679279391155 ] } },
{ "type": "Feature", "properties": { "code": "4403050070060100098", "lon_gcj02": 113.92624541000001, "lat_gcj02": 22.51170661, "addr": "后海村40号", "name": "后海村40号", "pk": "7041a99c4d7f47f3bfa0b3ae29e62369", "use_type": 2, "update_year": "2022", "floors": 3, "update_status": 1, "wgs_lon": 113.94346218868485, "wgs_lat": 22.517423422156355, "use_name": "商业/commercial" }, "geometry": { "type": "Point", "coordinates": [ 113.943462188684848, 22.517423422156355 ] } },
{ "type": "Feature", "properties": { "code": "4403050070020100007", "lon_gcj02": 113.92293142, "lat_gcj02": 22.5157848, "addr": "龙城路104号", "name": "粤海小区A座", "pk": "6f87203da44047989a4553a1010c5003", "use_type": 7, "update_year": "2022", "floors": 8, "update_status": 1, "wgs_lon": 113.94014205639392, "wgs_lat": 22.521499311016658, "use_name": "混合/mixed" }, "geometry": { "type": "Point", "coordinates": [ 113.940142056393924, 22.521499311016658 ] } },
{ "type": "Feature", "properties": { "code": "4403050070050500022", "lon_gcj02": 113.93750539, "lat_gcj02": 22.52346627, "addr": "滨海大道3099号", "name": "五矿金融大厦", "pk": "6f1236db3abb4ddfba708262529fe02e", "use_type": 4, "update_year": "2022", "floors": 33, "update_status": 1, "wgs_lon": 113.95475343202752, "wgs_lat": 22.52920182606033, "use_name": "工业/industrial" }, "geometry": { "type": "Point", "coordinates": [ 113.954753432027516, 22.52920182606033 ] } },
{ "type": "Feature", "properties": { "code": "4403050070140400015", "lon_gcj02": 113.92930208, "lat_gcj02": 22.51066054, "addr": "华明路1号", "name": "蔚蓝海岸一期1栋", "pk": "6d3551bc402343ecb99143379ee5f602", "use_type": 2, "update_year": "2022", "floors": 11, "update_status": 1, "wgs_lon": 113.94652568073504, "wgs_lat": 22.516380685630978, "use_name": "商业/commercial" }, "geometry": { "type": "Point", "coordinates": [ 113.946525680735036, 22.516380685630978 ] } },
{ "type": "Feature", "properties": { "code": "4403050070150100054", "lon_gcj02": 113.93112042, "lat_gcj02": 22.53438901, "addr": "南海大道3688号", "name": "新图书馆", "pk": "52e5a12eac734652a24067d9c6dff2af", "use_type": 1, "update_year": "2022", "floors": 5, "update_status": 1, "wgs_lon": 113.94835447841606, "wgs_lat": 22.540118166163364, "use_name": "住宅/residential" }, "geometry": { "type": "Point", "coordinates": [ 113.948354478416064, 22.540118166163364 ] } },
{ "type": "Feature", "properties": { "code": "4403050070160600020", "lon_gcj02": 113.92926948, "lat_gcj02": 22.52846555, "addr": "桂庙新村56-5号", "name": "桂庙新村56-5号", "pk": "51e251b8f55549b798bd7440d6410bc1", "use_type": 2, "update_year": "2022", "floors": 6, "update_status": 1, "wgs_lon": 113.94649752732217, "wgs_lat": 22.534190694648554, "use_name": "商业/commercial" }, "geometry": { "type": "Point", "coordinates": [ 113.946497527322165, 22.534190694648554 ] } },
{ "type": "Feature", "properties": { "code": "4403050070010200001", "lon_gcj02": 113.92512156, "lat_gcj02": 22.52742155, "addr": "书山路23号东门", "name": "创世纪滨海花园1.2.3.4栋", "pk": "4c0678e12f7f4b14b85085491b025bf3", "use_type": 2, "update_year": "2022", "floors": 17, "update_status": 1, "wgs_lon": 113.94233983737358, "wgs_lat": 22.53314157658107, "use_name": "商业/commercial" }, "geometry": { "type": "Point", "coordinates": [ 113.942339837373581, 22.53314157658107 ] } },
{ "type": "Feature", "properties": { "code": "4403050070160600025", "lon_gcj02": 113.92982834, "lat_gcj02": 22.52840202, "addr": "学府路30号", "name": "武装部", "pk": "401db71d90c64d12a26bf91da6eaf3e9", "use_type": 1, "update_year": "2022", "floors": 6, "update_status": 1, "wgs_lon": 113.9470577143679, "wgs_lat": 22.534127855690343, "use_name": "住宅/residential" }, "geometry": { "type": "Point", "coordinates": [ 113.947057714367901, 22.534127855690343 ] } },
{ "type": "Feature", "properties": { "code": "4403050070160300022", "lon_gcj02": 113.92846428, "lat_gcj02": 22.52907812, "addr": "桂庙新村70号", "name": "桂庙新村70号", "pk": "3d5bc304b5bf42e3ab879006c91d628d", "use_type": 2, "update_year": "2022", "floors": 4, "update_status": 1, "wgs_lon": 113.94569057377214, "wgs_lat": 22.534802436071196, "use_name": "商业/commercial" }, "geometry": { "type": "Point", "coordinates": [ 113.94569057377214, 22.534802436071196 ] } },
{ "type": "Feature", "properties": { "code": "4403050070060100036", "lon_gcj02": 113.92614652, "lat_gcj02": 22.5130177, "addr": "后海村109号", "name": "后海村109号", "pk": "3d449fdb599f4d71a3c7f6928bcea433", "use_type": 2, "update_year": "2022", "floors": 9, "update_status": 1, "wgs_lon": 113.94336340984593, "wgs_lat": 22.518734781043598, "use_name": "商业/commercial" }, "geometry": { "type": "Point", "coordinates": [ 113.943363409845929, 22.518734781043598 ] } },
{ "type": "Feature", "properties": { "code": "4403050070060100025", "lon_gcj02": 113.92650941, "lat_gcj02": 22.51329106, "addr": "后海村138号", "name": "后海村138号", "pk": "3d22ead882d3495c8df711241b429867", "use_type": 2, "update_year": "2022", "floors": 5, "update_status": 1, "wgs_lon": 113.94372718569853, "wgs_lat": 22.519008628774142, "use_name": "商业/commercial" }, "geometry": { "type": "Point", "coordinates": [ 113.943727185698535, 22.519008628774142 ] } },
{ "type": "Feature", "properties": { "code": "4403050070060100083", "lon_gcj02": 113.92627572000001, "lat_gcj02": 22.51198349, "addr": "后海村60号", "name": "后海村60号", "pk": "3ade9efc51c14a0dacd7fa45dfa3ccc8", "use_type": 2, "update_year": "2022", "floors": 5, "update_status": 1, "wgs_lon": 113.94349263710232, "wgs_lat": 22.517700416523887, "use_name": "商业/commercial" }, "geometry": { "type": "Point", "coordinates": [ 113.943492637102324, 22.517700416523887 ] } },
{ "type": "Feature", "properties": { "code": "4403050070150100034", "lon_gcj02": 113.93288654, "lat_gcj02": 22.53636036, "addr": "南海大道3688号", "name": "凌霄斋", "pk": "3a6a7a83f6e448e886ec5f4fd572542f", "use_type": 2, "update_year": "2022", "floors": 6, "update_status": 1, "wgs_lon": 113.95012554828429, "wgs_lat": 22.542092472541768, "use_name": "商业/commercial" }, "geometry": { "type": "Point", "coordinates": [ 113.950125548284291, 22.542092472541768 ] } },
{ "type": "Feature", "properties": { "code": "4403050070110300012", "lon_gcj02": 113.92899451, "lat_gcj02": 22.51215368, "addr": "登良路7-40", "name": "招商名仕花园12栋", "pk": "394cd5f5cade4ce8b0868630bc25e3ee", "use_type": 2, "update_year": "2022", "floors": 8, "update_status": 1, "wgs_lon": 113.94621775674733, "wgs_lat": 22.51787387479888, "use_name": "商业/commercial" }, "geometry": { "type": "Point", "coordinates": [ 113.94621775674733, 22.51787387479888 ] } },
{ "type": "Feature", "properties": { "code": "4403050070120400007", "lon_gcj02": 113.92126847, "lat_gcj02": 22.51092708, "addr": "建南路35号", "name": "南油A区20栋", "pk": "6b0512444f1b47789979e242b2afe713", "use_type": 1, "update_year": "2022", "floors": 9, "update_status": 1, "wgs_lon": 113.93847447131819, "wgs_lat": 22.51663862844735, "use_name": "住宅/residential" }, "geometry": { "type": "Point", "coordinates": [ 113.938474471318187, 22.51663862844735 ] } },
{ "type": "Feature", "properties": { "code": "4403050070120500010", "lon_gcj02": 113.92408828000001, "lat_gcj02": 22.51042378, "addr": "华明路3号", "name": "南油幼儿园", "pk": "6aa6eac9788e48fbab910f9304e950fa", "use_type": 8, "update_year": "2022", "floors": 3, "update_status": 1, "wgs_lon": 113.9413000003964, "wgs_lat": 22.51613790033203, "use_name": "科教/education" }, "geometry": { "type": "Point", "coordinates": [ 113.941300000396396, 22.51613790033203 ] } },
{ "type": "Feature", "properties": { "code": "4403050070070100004", "lon_gcj02": 113.92514689, "lat_gcj02": 22.51034616, "addr": "兴南路12号", "name": "海映山庄7栋", "pk": "679db5e6b4be47a88b9be45c66dd9a56", "use_type": 2, "update_year": "2022", "floors": 6, "update_status": 1, "wgs_lon": 113.94236088512886, "wgs_lat": 22.516061369852196, "use_name": "商业/commercial" }, "geometry": { "type": "Point", "coordinates": [ 113.942360885128863, 22.516061369852196 ] } },
{ "type": "Feature", "properties": { "code": "4403050070060100099", "lon_gcj02": 113.92625719, "lat_gcj02": 22.51164587, "addr": "后海村35号", "name": "后海村35号", "pk": "674f50baf5544e0cb3a404c76e1f83fc", "use_type": 2, "update_year": "2022", "floors": 8, "update_status": 1, "wgs_lon": 113.943473979716, "wgs_lat": 22.517362677756857, "use_name": "商业/commercial" }, "geometry": { "type": "Point", "coordinates": [ 113.943473979716003, 22.517362677756857 ] } },
{ "type": "Feature", "properties": { "code": "4403050070150100064", "lon_gcj02": 113.92839194, "lat_gcj02": 22.53115478, "addr": "南海大道3688号", "name": "倚风楼", "pk": "654fa27c9e2d4e13a3e8e0036c964866", "use_type": 2, "update_year": "2022", "floors": 6, "update_status": 1, "wgs_lon": 113.94561859162152, "wgs_lat": 22.536879575841862, "use_name": "商业/commercial" }, "geometry": { "type": "Point", "coordinates": [ 113.945618591621525, 22.536879575841862 ] } },
{ "type": "Feature", "properties": { "code": "4403050070110300008", "lon_gcj02": 113.92819966, "lat_gcj02": 22.51110611, "addr": "登良路7-40 招商名仕花园1-7栋", "name": "招商名仕花园1-7栋", "pk": "6530947acb534c8fb508910232410ea1", "use_type": 2, "update_year": "2022", "floors": 7, "update_status": 1, "wgs_lon": 113.9454207663359, "wgs_lat": 22.516825026064588, "use_name": "商业/commercial" }, "geometry": { "type": "Point", "coordinates": [ 113.9454207663359, 22.516825026064588 ] } },
{ "type": "Feature", "properties": { "code": "4403050070060100147", "lon_gcj02": 113.92656138, "lat_gcj02": 22.51192253, "addr": "后海村56号A", "name": "后海村56号A", "pk": "61c19f3a1f1540719639aa7bfe678f4d", "use_type": 2, "update_year": "2022", "floors": 11, "update_status": 1, "wgs_lon": 113.94377892552183, "wgs_lat": 22.51763976175852, "use_name": "商业/commercial" }, "geometry": { "type": "Point", "coordinates": [ 113.943778925521826, 22.51763976175852 ] } },
{ "type": "Feature", "properties": { "code": "4403050070140400009", "lon_gcj02": 113.93053188, "lat_gcj02": 22.51222334, "addr": "华明路1号", "name": "蔚蓝海岸二期13栋", "pk": "607f1eb30eba464cbbbb8f0493a26d1d", "use_type": 2, "update_year": "2022", "floors": 12, "update_status": 1, "wgs_lon": 113.94775885451963, "wgs_lat": 22.517945518330542, "use_name": "商业/commercial" }, "geometry": { "type": "Point", "coordinates": [ 113.947758854519634, 22.517945518330542 ] } },
{ "type": "Feature", "properties": { "code": "4403050070160300067", "lon_gcj02": 113.92882888, "lat_gcj02": 22.52967669, "addr": "桂庙新村68-4号", "name": "桂庙新村68-4号", "pk": "5ffaec107ec648d4a51128d48d9496aa", "use_type": 4, "update_year": "2022", "floors": 1, "update_status": 1, "wgs_lon": 113.94605618664252, "wgs_lat": 22.535401618044922, "use_name": "工业/industrial" }, "geometry": { "type": "Point", "coordinates": [ 113.946056186642522, 22.535401618044922 ] } },
{ "type": "Feature", "properties": { "code": "4403050070050100004", "lon_gcj02": 113.92547779, "lat_gcj02": 22.52275056, "addr": "海德二道288号", "name": "茂业时代广场", "pk": "5eec3000c4b344bdadf2024ea8ed35cf", "use_type": 4, "update_year": "2022", "floors": 0, "update_status": 1, "wgs_lon": 113.94269566440029, "wgs_lat": 22.528469672876419, "use_name": "工业/industrial" }, "geometry": { "type": "Point", "coordinates": [ 113.94269566440029, 22.528469672876419 ] } },
{ "type": "Feature", "properties": { "code": "4403050070070100005", "lon_gcj02": 113.92462558, "lat_gcj02": 22.51007623, "addr": "华明路1号", "name": "海映山庄6栋", "pk": "5e6d6145a9ad4b1aa057bfdcf6647089", "use_type": 2, "update_year": "2022", "floors": 6, "update_status": 1, "wgs_lon": 113.94183836992708, "wgs_lat": 22.515790807252852, "use_name": "商业/commercial" }, "geometry": { "type": "Point", "coordinates": [ 113.941838369927083, 22.515790807252852 ] } },
{ "type": "Feature", "properties": { "code": "4403050070060100068", "lon_gcj02": 113.92651673, "lat_gcj02": 22.5124339, "addr": "后海村84号", "name": "后海村84号", "pk": "5dc6c489631a4eff84c75b6c519a3a62", "use_type": 2, "update_year": "2022", "floors": 3, "update_status": 1, "wgs_lon": 113.94373430450725, "wgs_lat": 22.518151229230032, "use_name": "商业/commercial" }, "geometry": { "type": "Point", "coordinates": [ 113.943734304507245, 22.518151229230032 ] } },
{ "type": "Feature", "properties": { "code": "4403050070051400003", "lon_gcj02": 113.92671355, "lat_gcj02": 22.51933661, "addr": "南山区海德一道223号", "name": "海岸明珠", "pk": "5b64e3ec66274380ba3a8bd9379bd3de", "use_type": 3, "update_year": "2022", "floors": 26, "update_status": 1, "wgs_lon": 113.9439333235583, "wgs_lat": 22.525056140383228, "use_name": "办公/office" }, "geometry": { "type": "Point", "coordinates": [ 113.943933323558298, 22.525056140383228 ] } },
{ "type": "Feature", "properties": { "code": "44030500701403T0032", "lon_gcj02": 113.93953302, "lat_gcj02": 22.51351479, "addr": "达濠市政道路建设项目部", "name": "达濠市政道路建设项目部", "pk": "5762487e55bf4b0bafb5c1eb80e8e429", "use_type": 9, "update_year": "2022", "floors": 2, "update_status": 1, "wgs_lon": 113.95678424047981, "wgs_lat": 22.519250860575386, "use_name": "其他/other" }, "geometry": { "type": "Point", "coordinates": [ 113.956784240479806, 22.519250860575386 ] } },
{ "type": "Feature", "properties": { "code": "4403050070150100136", "lon_gcj02": 113.92728781, "lat_gcj02": 22.53207943, "addr": "南山区南海大道3688号", "name": "花圃水泵房", "pk": "468e1cc5e99148ae836a049ed83c7dd1", "use_type": 8, "update_year": "2022", "floors": 2, "update_status": 1, "wgs_lon": 113.94451213246327, "wgs_lat": 22.537803160214583, "use_name": "科教/education" }, "geometry": { "type": "Point", "coordinates": [ 113.944512132463274, 22.537803160214583 ] } },
{ "type": "Feature", "properties": { "code": "4403050070140200001", "lon_gcj02": 113.93206133, "lat_gcj02": 22.516238, "addr": "登良路8号", "name": "蔚蓝海岸三期39栋", "pk": "443eb50bf16044eba88a8a77f8cc1d4a", "use_type": 2, "update_year": "2022", "floors": 18, "update_status": 1, "wgs_lon": 113.94929312596037, "wgs_lat": 22.521963389060133, "use_name": "商业/commercial" }, "geometry": { "type": "Point", "coordinates": [ 113.949293125960367, 22.521963389060133 ] } },
{ "type": "Feature", "properties": { "code": "4403050070120400008", "lon_gcj02": 113.92154608, "lat_gcj02": 22.51097898, "addr": "建南路29号", "name": "南油A区19栋", "pk": "423b5e14ebd347eebae2a68ed70a3d8f", "use_type": 1, "update_year": "2022", "floors": 9, "update_status": 1, "wgs_lon": 113.93875265297443, "wgs_lat": 22.516690795375652, "use_name": "住宅/residential" }, "geometry": { "type": "Point", "coordinates": [ 113.938752652974429, 22.516690795375652 ] } },
{ "type": "Feature", "properties": { "code": "4403050070150100138", "lon_gcj02": 113.93495738, "lat_gcj02": 22.53764717, "addr": "南山区南海大道3688号", "name": "深大公共教室", "pk": "3543ba828c204ca98b8600fe97fa594d", "use_type": 8, "update_year": "2022", "floors": 1, "update_status": 1, "wgs_lon": 113.95220211585753, "wgs_lat": 22.543382641429623, "use_name": "科教/education" }, "geometry": { "type": "Point", "coordinates": [ 113.952202115857531, 22.543382641429623 ] } },
{ "type": "Feature", "properties": { "code": "4403050070140400020", "lon_gcj02": 113.92947876, "lat_gcj02": 22.50963516, "addr": "华明路1号", "name": "蔚蓝海岸一期6栋", "pk": "335a10dd82cd43a094756a8ebae509eb", "use_type": 2, "update_year": "2022", "floors": 11, "update_status": 1, "wgs_lon": 113.94670252351382, "wgs_lat": 22.515355229375601, "use_name": "商业/commercial" }, "geometry": { "type": "Point", "coordinates": [ 113.946702523513821, 22.515355229375601 ] } },
{ "type": "Feature", "properties": { "code": "44030500701501T0006", "lon_gcj02": 113.92897022, "lat_gcj02": 22.53118279, "addr": "南山区南海大道3688号深大海志楼北配电室", "name": "南山区南海大道3688号深大海志楼北配电室", "pk": "2ecebd14516d4c3fbab5fd762d262d8b", "use_type": 8, "update_year": "2022", "floors": 1, "update_status": 1, "wgs_lon": 113.94619824486487, "wgs_lat": 22.536908304702344, "use_name": "科教/education" }, "geometry": { "type": "Point", "coordinates": [ 113.946198244864874, 22.536908304702344 ] } },
{ "type": "Feature", "properties": { "code": "4403050070010200002", "lon_gcj02": 113.92552275, "lat_gcj02": 22.52619955, "addr": "书山路23号", "name": "创世纪滨海花园5.6.7栋", "pk": "2cf978838046469780ed3d0e6d9485e8", "use_type": 2, "update_year": "2022", "floors": 26, "update_status": 1, "wgs_lon": 113.94274160013414, "wgs_lat": 22.531919672759791, "use_name": "商业/commercial" }, "geometry": { "type": "Point", "coordinates": [ 113.942741600134141, 22.531919672759791 ] } },
{ "type": "Feature", "properties": { "code": "4403050070140300013", "lon_gcj02": 113.9359469, "lat_gcj02": 22.5120705, "addr": "中心路3331号", "name": "中建钢构大厦及中国建筑钢结构博物馆", "pk": "2aa3afcd7855487aaefdfb103d3e2ffc", "use_type": 4, "update_year": "2022", "floors": 41, "update_status": 1, "wgs_lon": 113.95318778180709, "wgs_lat": 22.517800358944871, "use_name": "工业/industrial" }, "geometry": { "type": "Point", "coordinates": [ 113.953187781807088, 22.517800358944871 ] } },
{ "type": "Feature", "properties": { "code": "4403050070020400007", "lon_gcj02": 113.92700406, "lat_gcj02": 22.51624566, "addr": "龙城路4号", "name": "云海天城", "pk": "29e950dd62a74a35b93488ab60e3297e", "use_type": 1, "update_year": "2022", "floors": 34, "update_status": 1, "wgs_lon": 113.94422370927361, "wgs_lat": 22.52196464452199, "use_name": "住宅/residential" }, "geometry": { "type": "Point", "coordinates": [ 113.944223709273615, 22.52196464452199 ] } },
{ "type": "Feature", "properties": { "code": "4403050070060200009", "lon_gcj02": 113.92604917, "lat_gcj02": 22.51008994, "addr": "华明路17号", "name": "怡海花园8栋", "pk": "2946a5e978dc40e5ab216da4b97d01a8", "use_type": 2, "update_year": "2022", "floors": 7, "update_status": 1, "wgs_lon": 113.9432650982925, "wgs_lat": 22.515806062327215, "use_name": "商业/commercial" }, "geometry": { "type": "Point", "coordinates": [ 113.9432650982925, 22.515806062327215 ] } },
{ "type": "Feature", "properties": { "code": "4403050070020100010", "lon_gcj02": 113.92357575, "lat_gcj02": 22.51633549, "addr": "南商路95号", "name": "南山区防疫站", "pk": "28ea2430e6e34c6b83c2814f7c093890", "use_type": 7, "update_year": "2022", "floors": 10, "update_status": 1, "wgs_lon": 113.94078788033877, "wgs_lat": 22.522050796397604, "use_name": "混合/mixed" }, "geometry": { "type": "Point", "coordinates": [ 113.940787880338775, 22.522050796397604 ] } },
{ "type": "Feature", "properties": { "code": "4403050070060100128", "lon_gcj02": 113.92676981, "lat_gcj02": 22.51352639, "addr": "后海村152号", "name": "后海村152号", "pk": "276d3cf953f74129912513ea07b3c79d", "use_type": 2, "update_year": "2022", "floors": 7, "update_status": 1, "wgs_lon": 113.94398823520584, "wgs_lat": 22.519244323603331, "use_name": "商业/commercial" }, "geometry": { "type": "Point", "coordinates": [ 113.943988235205836, 22.519244323603331 ] } },
{ "type": "Feature", "properties": { "code": "4403050070060100026", "lon_gcj02": 113.92662946, "lat_gcj02": 22.5132596, "addr": "后海村133号", "name": "后海村133号", "pk": "271f1819045d4e009ac42a8b512466e2", "use_type": 1, "update_year": "2022", "floors": 5, "update_status": 1, "wgs_lon": 113.9438474991818, "wgs_lat": 22.518977296194667, "use_name": "住宅/residential" }, "geometry": { "type": "Point", "coordinates": [ 113.9438474991818, 22.518977296194667 ] } },
{ "type": "Feature", "properties": { "code": "44030500701606T0001", "lon_gcj02": 113.92890197, "lat_gcj02": 22.52854565, "addr": "桂庙新村43-2号东配电室", "name": "桂庙新村43-2号东配电室", "pk": "261987613e534bf490c0fbae3e7b574a", "use_type": 9, "update_year": "2022", "floors": 1, "update_status": 1, "wgs_lon": 113.94612916244436, "wgs_lat": 22.534270358171938, "use_name": "其他/other" }, "geometry": { "type": "Point", "coordinates": [ 113.946129162444365, 22.534270358171938 ] } },
{ "type": "Feature", "properties": { "code": "4403050070160300010", "lon_gcj02": 113.92920886, "lat_gcj02": 22.53013946, "addr": "桂庙新村39-1号", "name": "桂庙新村39-1号", "pk": "2550f40a2e9e40e2b9b4dfe37c1e9362", "use_type": 2, "update_year": "2022", "floors": 6, "update_status": 1, "wgs_lon": 113.94643718802186, "wgs_lat": 22.535864987642611, "use_name": "商业/commercial" }, "geometry": { "type": "Point", "coordinates": [ 113.946437188021861, 22.535864987642611 ] } },
{ "type": "Feature", "properties": { "code": "4403050070150100055", "lon_gcj02": 113.93240597, "lat_gcj02": 22.53383562, "addr": "南海大道3688号", "name": "艺术学院", "pk": "2523d30b55964523add7dbdaaface562", "use_type": 1, "update_year": "2022", "floors": 2, "update_status": 1, "wgs_lon": 113.94964311134058, "wgs_lat": 22.539566379871729, "use_name": "住宅/residential" }, "geometry": { "type": "Point", "coordinates": [ 113.949643111340578, 22.539566379871729 ] } },
{ "type": "Feature", "properties": { "code": "4403050070160500013", "lon_gcj02": 113.92732513, "lat_gcj02": 22.52876011, "addr": "桂庙新村41号", "name": "桂庙新村41号", "pk": "2514aee61707434e9b65622fc524f54f", "use_type": 4, "update_year": "2022", "floors": 6, "update_status": 1, "wgs_lon": 113.94454869449011, "wgs_lat": 22.534482976984634, "use_name": "工业/industrial" }, "geometry": { "type": "Point", "coordinates": [ 113.944548694490109, 22.534482976984634 ] } },
{ "type": "Feature", "properties": { "code": "4403050070150100097", "lon_gcj02": 113.93123721000001, "lat_gcj02": 22.53100149, "addr": "南海大道3688号", "name": "海滨小区6栋,7栋", "pk": "246c2b4a691f46a4ac23a59a39af777e", "use_type": 2, "update_year": "2022", "floors": 7, "update_status": 1, "wgs_lon": 113.94847069674962, "wgs_lat": 22.536729883940769, "use_name": "商业/commercial" }, "geometry": { "type": "Point", "coordinates": [ 113.948470696749624, 22.536729883940769 ] } },
{ "type": "Feature", "properties": { "code": "4403050070120500017", "lon_gcj02": 113.92386847, "lat_gcj02": 22.51012129, "addr": "南山区华明路5号东南", "name": "南油幼儿园门卫室", "pk": "1c4a74532acd423da235f838996340a9", "use_type": 9, "update_year": "2022", "floors": 1, "update_status": 1, "wgs_lon": 113.9410796439501, "wgs_lat": 22.515835097482647, "use_name": "其他/other" }, "geometry": { "type": "Point", "coordinates": [ 113.941079643950104, 22.515835097482647 ] } },
{ "type": "Feature", "properties": { "code": "4403050070160600018", "lon_gcj02": 113.92937002, "lat_gcj02": 22.52867197, "addr": "桂庙新村56-4号", "name": "桂庙新村56-4号", "pk": "0639b0b8622e4ccaaed798cbf1559dbd", "use_type": 2, "update_year": "2022", "floors": 12, "update_status": 1, "wgs_lon": 113.94659836034748, "wgs_lat": 22.534397297850415, "use_name": "商业/commercial" }, "geometry": { "type": "Point", "coordinates": [ 113.94659836034748, 22.534397297850415 ] } },
{ "type": "Feature", "properties": { "code": "4403050070060100095", "lon_gcj02": 113.92620826, "lat_gcj02": 22.51182338, "addr": "后海村43号", "name": "后海村43", "pk": "0565968c813546e8b7d778341114e67c", "use_type": 2, "update_year": "2022", "floors": 4, "update_status": 1, "wgs_lon": 113.94342498494579, "wgs_lat": 22.51754018435733, "use_name": "商业/commercial" }, "geometry": { "type": "Point", "coordinates": [ 113.943424984945793, 22.51754018435733 ] } },
{ "type": "Feature", "properties": { "code": "44030500701204T0001", "lon_gcj02": 113.92104357, "lat_gcj02": 22.50928746, "addr": "南油东滨花场", "name": "南油东滨花场", "pk": "0403e3085f5e4a2d9d7ba3a2c0d2cefd", "use_type": 8, "update_year": "2022", "floors": 0, "update_status": 1, "wgs_lon": 113.93824870534247, "wgs_lat": 22.514998328765031, "use_name": "科教/education" }, "geometry": { "type": "Point", "coordinates": [ 113.938248705342474, 22.514998328765031 ] } },
{ "type": "Feature", "properties": { "code": "4403050070150100122", "lon_gcj02": 113.93696243, "lat_gcj02": 22.53973707, "addr": "南山区南海大道3688号", "name": "低植易耗品配送中心门卫室", "pk": "03dd8ef121b84aa4b26d93a4d0e38494", "use_type": 8, "update_year": "2022", "floors": 1, "update_status": 1, "wgs_lon": 113.95421311321654, "wgs_lat": 22.545476188232673, "use_name": "科教/education" }, "geometry": { "type": "Point", "coordinates": [ 113.954213113216539, 22.545476188232673 ] } },
{ "type": "Feature", "properties": { "code": "4403050070020100004", "lon_gcj02": 113.92317285, "lat_gcj02": 22.51679406, "addr": "南海大道2618号", "name": "粤海街道办事处", "pk": "010bed5bc2824ebbbd2096baf2ff3941", "use_type": 7, "update_year": "2022", "floors": 8, "update_status": 1, "wgs_lon": 113.9403842477416, "wgs_lat": 22.52250909649068, "use_name": "混合/mixed" }, "geometry": { "type": "Point", "coordinates": [ 113.940384247741605, 22.52250909649068 ] } },
{ "type": "Feature", "properties": { "code": "4403050070120100025", "lon_gcj02": 113.92457956, "lat_gcj02": 22.51113389, "addr": "兴南路54号4栋", "name": "南油B区14栋", "pk": "00091737d5d54ca4809d7b6770cffed4", "use_type": 2, "update_year": "2022", "floors": 6, "update_status": 1, "wgs_lon": 113.94179251881319, "wgs_lat": 22.51684872693107, "use_name": "商业/commercial" }, "geometry": { "type": "Point", "coordinates": [ 113.941792518813187, 22.51684872693107 ] } },
{ "type": "Feature", "properties": { "code": "4403050070120300002", "lon_gcj02": 113.92359292, "lat_gcj02": 22.51259339, "addr": "南商路22号9栋", "name": "南油B区64栋", "pk": "19ebe8a1b3ed419eb0a982e0ecfb2b3e", "use_type": 2, "update_year": "2022", "floors": 6, "update_status": 1, "wgs_lon": 113.94080413630762, "wgs_lat": 22.518307637071832, "use_name": "商业/commercial" }, "geometry": { "type": "Point", "coordinates": [ 113.940804136307619, 22.518307637071832 ] } },
{ "type": "Feature", "properties": { "code": "4403050070120500006", "lon_gcj02": 113.92235353, "lat_gcj02": 22.50860822, "addr": "建南路5号", "name": "南油A区1栋", "pk": "187a71572bd646adaa31c2bbf7f487ce", "use_type": 2, "update_year": "2022", "floors": 6, "update_status": 1, "wgs_lon": 113.9395611467092, "wgs_lat": 22.514320095363818, "use_name": "商业/commercial" }, "geometry": { "type": "Point", "coordinates": [ 113.939561146709195, 22.514320095363818 ] } },
{ "type": "Feature", "properties": { "code": "4403050070060100084", "lon_gcj02": 113.9262749, "lat_gcj02": 22.51194133, "addr": "后海村54号", "name": "后海村54号", "pk": "12620c7d2d7d43a0b25b8f3d73cb77dc", "use_type": 2, "update_year": "2022", "floors": 8, "update_status": 1, "wgs_lon": 113.94349180455116, "wgs_lat": 22.517658243376996, "use_name": "商业/commercial" }, "geometry": { "type": "Point", "coordinates": [ 113.943491804551158, 22.517658243376996 ] } },
{ "type": "Feature", "properties": { "code": "44030500701202T0015", "lon_gcj02": 113.92150109000001, "lat_gcj02": 22.5126808, "addr": "深圳市地贴9号线西延线南油站项目临建（工人宿舍九栋）", "name": "深圳市地贴9号线西延线南油站项目临建（工人宿舍九栋）", "pk": "0f589aab4bc94f01989f30955d55d47c", "use_type": 2, "update_year": "2022", "floors": 2, "update_status": 1, "wgs_lon": 113.93870800433044, "wgs_lat": 22.518393068004791, "use_name": "商业/commercial" }, "geometry": { "type": "Point", "coordinates": [ 113.938708004330437, 22.518393068004791 ] } },
{ "type": "Feature", "properties": { "code": "4403050070060200008", "lon_gcj02": 113.92605603, "lat_gcj02": 22.51030403, "addr": "华明路17号", "name": "怡海花园9栋", "pk": "0da647ef1e3c478daab97a8b7f77963c", "use_type": 2, "update_year": "2022", "floors": 7, "update_status": 1, "wgs_lon": 113.94327202800848, "wgs_lat": 22.51602022239441, "use_name": "商业/commercial" }, "geometry": { "type": "Point", "coordinates": [ 113.943272028008479, 22.51602022239441 ] } },
{ "type": "Feature", "properties": { "code": "4403050070050600005", "lon_gcj02": 113.92720545, "lat_gcj02": 22.52051183, "addr": "后海大道2551号", "name": "青少年活动中心", "pk": "ebd6a8db41674b08ad7066388bc0b3dd", "use_type": 1, "update_year": "2022", "floors": 3, "update_status": 1, "wgs_lon": 113.94442664375327, "wgs_lat": 22.526232260447962, "use_name": "住宅/residential" }, "geometry": { "type": "Point", "coordinates": [ 113.944426643753275, 22.526232260447962 ] } },
{ "type": "Feature", "properties": { "code": "4403050070060100071", "lon_gcj02": 113.9265634, "lat_gcj02": 22.51226368, "addr": "后海村75号", "name": "后海村75号", "pk": "e86f610d92f14f8aabae569a6916e2f4", "use_type": 2, "update_year": "2022", "floors": 7, "update_status": 1, "wgs_lon": 113.94378103674144, "wgs_lat": 22.517981012937653, "use_name": "商业/commercial" }, "geometry": { "type": "Point", "coordinates": [ 113.943781036741441, 22.517981012937653 ] } },
{ "type": "Feature", "properties": { "code": "4403050070060200013", "lon_gcj02": 113.92648482, "lat_gcj02": 22.50967761, "addr": "后海大道2061号", "name": "后海别墅A06", "pk": "e7d41175f8ab42b7a2c336cceb12acc6", "use_type": 2, "update_year": "2022", "floors": 3, "update_status": 1, "wgs_lon": 113.94370162238216, "wgs_lat": 22.515394101526422, "use_name": "商业/commercial" }, "geometry": { "type": "Point", "coordinates": [ 113.943701622382164, 22.515394101526422 ] } },
{ "type": "Feature", "properties": { "code": "4403050070060200005", "lon_gcj02": 113.92555543, "lat_gcj02": 22.5097669, "addr": "华明路17号", "name": "怡海花园5栋", "pk": "e7249aefbd3f4b46b84d8ea15339a96e", "use_type": 2, "update_year": "2022", "floors": 7, "update_status": 1, "wgs_lon": 113.94277017793999, "wgs_lat": 22.515482383390513, "use_name": "商业/commercial" }, "geometry": { "type": "Point", "coordinates": [ 113.942770177939991, 22.515482383390513 ] } },
{ "type": "Feature", "properties": { "code": "4403050070140400027", "lon_gcj02": 113.9318881, "lat_gcj02": 22.51161809, "addr": "华明路1号", "name": "蔚蓝海岸二期23栋", "pk": "e64ef4ba66924187832518224cd2cdb7", "use_type": 2, "update_year": "2022", "floors": 28, "update_status": 1, "wgs_lon": 113.94911828593138, "wgs_lat": 22.517341909860427, "use_name": "商业/commercial" }, "geometry": { "type": "Point", "coordinates": [ 113.949118285931377, 22.517341909860427 ] } },
{ "type": "Feature", "properties": { "code": "4403050070120100010", "lon_gcj02": 113.92564595, "lat_gcj02": 22.51313251, "addr": "后海工业区8栋", "name": "后海工业区8栋", "pk": "da926837d3eb4489a190123da07415b5", "use_type": 1, "update_year": "2022", "floors": 7, "update_status": 1, "wgs_lon": 113.94286175321764, "wgs_lat": 22.518849069934319, "use_name": "住宅/residential" }, "geometry": { "type": "Point", "coordinates": [ 113.942861753217642, 22.518849069934319 ] } },
{ "type": "Feature", "properties": { "code": "4403050070160500008", "lon_gcj02": 113.92679132000001, "lat_gcj02": 22.52890007, "addr": "桂庙新村29、31号", "name": "桂庙新村29、31号", "pk": "d69660a944b94bef9c965407c8427ddd", "use_type": 1, "update_year": "2022", "floors": 4, "update_status": 1, "wgs_lon": 113.94401370030006, "wgs_lat": 22.534622356930619, "use_name": "住宅/residential" }, "geometry": { "type": "Point", "coordinates": [ 113.944013700300061, 22.534622356930619 ] } },
{ "type": "Feature", "properties": { "code": "4403050070060100156", "lon_gcj02": 113.92679626, "lat_gcj02": 22.51163714, "addr": "后海村23-1号", "name": "后海村23-1号", "pk": "d553715fba51434ea2130cd42ad7630e", "use_type": 1, "update_year": "2022", "floors": 0, "update_status": 1, "wgs_lon": 113.94401426540213, "wgs_lat": 22.51735455716554, "use_name": "住宅/residential" }, "geometry": { "type": "Point", "coordinates": [ 113.944014265402132, 22.51735455716554 ] } },
{ "type": "Feature", "properties": { "code": "4403050070060100043", "lon_gcj02": 113.92665543, "lat_gcj02": 22.51278421, "addr": "后海村113号", "name": "后海村113号", "pk": "d398b6b1dc46431285da40db8f74fb02", "use_type": 2, "update_year": "2022", "floors": 3, "update_status": 1, "wgs_lon": 113.9438734072456, "wgs_lat": 22.518501798417191, "use_name": "商业/commercial" }, "geometry": { "type": "Point", "coordinates": [ 113.943873407245604, 22.518501798417191 ] } },
{ "type": "Feature", "properties": { "code": "4403050070090100004", "lon_gcj02": 113.92306819, "lat_gcj02": 22.51540236, "addr": "登良路48号 龙城花园23栋", "name": "龙城花园23栋", "pk": "d2b796fc45ba4a37b79a80a22993574f", "use_type": 2, "update_year": "2022", "floors": 7, "update_status": 1, "wgs_lon": 113.94027901500731, "wgs_lat": 22.521116895207637, "use_name": "商业/commercial" }, "geometry": { "type": "Point", "coordinates": [ 113.940279015007306, 22.521116895207637 ] } },
{ "type": "Feature", "properties": { "code": "4403050070150100015", "lon_gcj02": 113.93373654, "lat_gcj02": 22.53971678, "addr": "南海大道3688号", "name": "体育场馆中心", "pk": "d1f69d67befa43bb80aca0cd34f87570", "use_type": 8, "update_year": "2022", "floors": 3, "update_status": 1, "wgs_lon": 113.95097859471481, "wgs_lat": 22.54545100194435, "use_name": "科教/education" }, "geometry": { "type": "Point", "coordinates": [ 113.950978594714812, 22.54545100194435 ] } },
{ "type": "Feature", "properties": { "code": "4403050070150100009", "lon_gcj02": 113.92982561, "lat_gcj02": 22.53749207, "addr": "南海大道3688号", "name": "深圳大学材料学院", "pk": "ffcd9e298fa44dcfae8e3d613f1b5567", "use_type": 7, "update_year": "2022", "floors": 2, "update_status": 1, "wgs_lon": 113.94705728886457, "wgs_lat": 22.543220364942066, "use_name": "混合/mixed" }, "geometry": { "type": "Point", "coordinates": [ 113.947057288864571, 22.543220364942066 ] } },
{ "type": "Feature", "properties": { "code": "4403050070090200006", "lon_gcj02": 113.92556108, "lat_gcj02": 22.51514515, "addr": "龙城路47号南油B区43栋", "name": "南油B区43栋", "pk": "fc5e97126c7e4feea2992528f6c9f8a5", "use_type": 2, "update_year": "2022", "floors": 7, "update_status": 1, "wgs_lon": 113.94277720644766, "wgs_lat": 22.520862196677697, "use_name": "商业/commercial" }, "geometry": { "type": "Point", "coordinates": [ 113.942777206447659, 22.520862196677697 ] } },
{ "type": "Feature", "properties": { "code": "4403050070060100145", "lon_gcj02": 113.92669403, "lat_gcj02": 22.51206412, "addr": "后海村73号、76号", "name": "后海村73号、76号", "pk": "f6d385689cda4e7bacb50fcf4fd0835a", "use_type": 2, "update_year": "2022", "floors": 5, "update_status": 2, "wgs_lon": 113.94391191182065, "wgs_lat": 22.517781543985102, "use_name": "商业/commercial" }, "geometry": { "type": "Point", "coordinates": [ 113.943911911820649, 22.517781543985102 ] } },
{ "type": "Feature", "properties": { "code": "4403050070140400026", "lon_gcj02": 113.9318754, "lat_gcj02": 22.5122529, "addr": "华明路1号", "name": "蔚蓝海岸二期25栋", "pk": "f69b153acab8428ab9f5aae1f341b5df", "use_type": 2, "update_year": "2022", "floors": 28, "update_status": 1, "wgs_lon": 113.94910571532236, "wgs_lat": 22.517976886571404, "use_name": "商业/commercial" }, "geometry": { "type": "Point", "coordinates": [ 113.949105715322361, 22.517976886571404 ] } },
{ "type": "Feature", "properties": { "code": "4403050070090100014", "lon_gcj02": 113.9233842, "lat_gcj02": 22.51468295, "addr": "登良路48号 龙城花园10栋", "name": "龙城花园10栋", "pk": "f2e6882764a2456ab481474c1ece7d46", "use_type": 2, "update_year": "2022", "floors": 6, "update_status": 1, "wgs_lon": 113.94059550597861, "wgs_lat": 22.520397591014351, "use_name": "商业/commercial" }, "geometry": { "type": "Point", "coordinates": [ 113.940595505978607, 22.520397591014351 ] } },
{ "type": "Feature", "properties": { "code": "4403050070060100132", "lon_gcj02": 113.92683206, "lat_gcj02": 22.51305075, "addr": "后海村128号", "name": "后海村128号", "pk": "ef33a7c13b674eb1b7ce3928e1a01bfd", "use_type": 2, "update_year": "2022", "floors": 4, "update_status": 1, "wgs_lon": 113.9440505058448, "wgs_lat": 22.518768617674159, "use_name": "商业/commercial" }, "geometry": { "type": "Point", "coordinates": [ 113.9440505058448, 22.518768617674159 ] } },
{ "type": "Feature", "properties": { "code": "44030500700810T0008", "lon_gcj02": 113.94036129, "lat_gcj02": 22.5447141, "addr": "科苑路1号", "name": "科苑路1号", "pk": "e1a964e1d8d645fbae80b3e3cb1e6f5f", "use_type": 9, "update_year": "2022", "floors": 0, "update_status": 1, "wgs_lon": 113.95762283257567, "wgs_lat": 22.550460145248252, "use_name": "其他/other" }, "geometry": { "type": "Point", "coordinates": [ 113.957622832575666, 22.550460145248252 ] } },
{ "type": "Feature", "properties": { "code": "4403050070050600004", "lon_gcj02": 113.9259817, "lat_gcj02": 22.52066686, "addr": "文心二路38号", "name": "海印长城一期（海印长城幼儿园）", "pk": "e04950171e8e4a599db67f5bdd4a2bf1", "use_type": 1, "update_year": "2022", "floors": 3, "update_status": 1, "wgs_lon": 113.9432001642668, "wgs_lat": 22.52638594139739, "use_name": "住宅/residential" }, "geometry": { "type": "Point", "coordinates": [ 113.943200164266798, 22.52638594139739 ] } },
{ "type": "Feature", "properties": { "code": "4403050070140400001", "lon_gcj02": 113.92953752, "lat_gcj02": 22.51258042, "addr": "华明路1号", "name": "蔚蓝海岸二期6、7栋", "pk": "de24e717c8854e8d94dfd864bb2d7862", "use_type": 2, "update_year": "2022", "floors": 21, "update_status": 1, "wgs_lon": 113.94676217283596, "wgs_lat": 22.518301420100908, "use_name": "商业/commercial" }, "geometry": { "type": "Point", "coordinates": [ 113.94676217283596, 22.518301420100908 ] } },
{ "type": "Feature", "properties": { "code": "4403050070150100100", "lon_gcj02": 113.93203836000001, "lat_gcj02": 22.53191305, "addr": "南海大道3688号", "name": "海滨小区15栋,16栋", "pk": "dbd0a0e66b0d4e8abe435ffae756c6b1", "use_type": 2, "update_year": "2022", "floors": 8, "update_status": 1, "wgs_lon": 113.94927408276726, "wgs_lat": 22.537642780314854, "use_name": "商业/commercial" }, "geometry": { "type": "Point", "coordinates": [ 113.949274082767261, 22.537642780314854 ] } },
{ "type": "Feature", "properties": { "code": "4403050070050200007", "lon_gcj02": 113.92765654, "lat_gcj02": 22.52324114, "addr": "海德三道202号", "name": "城市印象幼儿园", "pk": "d187783d2b154c7592bfed75a4f32364", "use_type": 8, "update_year": "2022", "floors": 3, "update_status": 1, "wgs_lon": 113.94487946600577, "wgs_lat": 22.528962867326996, "use_name": "科教/education" }, "geometry": { "type": "Point", "coordinates": [ 113.944879466005773, 22.528962867326996 ] } },
{ "type": "Feature", "properties": { "code": "4403050070060100108", "lon_gcj02": 113.92614552000001, "lat_gcj02": 22.51153728, "addr": "后海村28号", "name": "后海村28号", "pk": "d09a710639464c3e86f0e6b16383733f", "use_type": 2, "update_year": "2022", "floors": 4, "update_status": 1, "wgs_lon": 113.94336203158507, "wgs_lat": 22.517253931071888, "use_name": "商业/commercial" }, "geometry": { "type": "Point", "coordinates": [ 113.943362031585067, 22.517253931071888 ] } },
{ "type": "Feature", "properties": { "code": "4403050070060100080", "lon_gcj02": 113.92613459, "lat_gcj02": 22.51196095, "addr": "后海村53号", "name": "后海村53号", "pk": "cfce2a307280402c8955cf0cd7156eb2", "use_type": 2, "update_year": "2022", "floors": 4, "update_status": 1, "wgs_lon": 113.94335118470211, "wgs_lat": 22.517677711784987, "use_name": "商业/commercial" }, "geometry": { "type": "Point", "coordinates": [ 113.943351184702109, 22.517677711784987 ] } },
{ "type": "Feature", "properties": { "code": "4403050070042300009", "lon_gcj02": 113.93538779, "lat_gcj02": 22.5294984, "addr": "深圳市南山区高新南九道55号", "name": "微软科通大厦", "pk": "cfc26649e1ca4e139ce687e79ff5ef35", "use_type": 7, "update_year": "2022", "floors": 28, "update_status": 1, "wgs_lon": 113.95263160028394, "wgs_lat": 22.535232317700508, "use_name": "混合/mixed" }, "geometry": { "type": "Point", "coordinates": [ 113.952631600283937, 22.535232317700508 ] } },
{ "type": "Feature", "properties": { "code": "4403050070101200010", "lon_gcj02": 113.93006751, "lat_gcj02": 22.54547879, "addr": "科技中一路1号", "name": "高新富悦公寓", "pk": "cf5658f9b4994fbf9e7b66a0f49cc450", "use_type": 3, "update_year": "2022", "floors": 19, "update_status": 1, "wgs_lon": 113.9473018060648, "wgs_lat": 22.551209498052671, "use_name": "办公/office" }, "geometry": { "type": "Point", "coordinates": [ 113.9473018060648, 22.551209498052671 ] } },
{ "type": "Feature", "properties": { "code": "4403050070010300001", "lon_gcj02": 113.92824595, "lat_gcj02": 22.52810505, "addr": "勤学路8号", "name": "锦隆花园锦云A.B.C.D阁", "pk": "ce819d0ca5ab4e50bab2150b248230d7", "use_type": 2, "update_year": "2022", "floors": 11, "update_status": 1, "wgs_lon": 113.94547148404854, "wgs_lat": 22.533828833196026, "use_name": "商业/commercial" }, "geometry": { "type": "Point", "coordinates": [ 113.945471484048539, 22.533828833196026 ] } },
{ "type": "Feature", "properties": { "code": "4403050070090100013", "lon_gcj02": 113.9229183, "lat_gcj02": 22.51467765, "addr": "登良路48号 龙城花园17栋", "name": "龙城花园17栋", "pk": "cbbf281cea504fe6aef6aa5b3db6ec7b", "use_type": 2, "update_year": "2022", "floors": 7, "update_status": 1, "wgs_lon": 113.94012862785006, "wgs_lat": 22.520391830477244, "use_name": "商业/commercial" }, "geometry": { "type": "Point", "coordinates": [ 113.940128627850058, 22.520391830477244 ] } },
{ "type": "Feature", "properties": { "code": "44030500701202T0017", "lon_gcj02": 113.92147814, "lat_gcj02": 22.51259972, "addr": "深圳市地铁9号线西延线南油站项目临建（工人宿舍8栋）", "name": "深圳市地铁9号线西延线南油站项目临建（工人宿舍8栋）", "pk": "ca57b9a7c21b4daab9fe1093af7f023c", "use_type": 2, "update_year": "2022", "floors": 2, "update_status": 1, "wgs_lon": 113.93868498748037, "wgs_lat": 22.518311943640612, "use_name": "商业/commercial" }, "geometry": { "type": "Point", "coordinates": [ 113.938684987480372, 22.518311943640612 ] } },
{ "type": "Feature", "properties": { "code": "4403050070041900007", "lon_gcj02": 113.93559171, "lat_gcj02": 22.53169992, "addr": "科苑路", "name": "深圳大学南校区医学院", "pk": "c80e2bfd63854be7bd65ab5e2e730c5d", "use_type": 7, "update_year": "2022", "floors": 9, "update_status": 1, "wgs_lon": 113.95283662661041, "wgs_lat": 22.537434749237395, "use_name": "混合/mixed" }, "geometry": { "type": "Point", "coordinates": [ 113.952836626610406, 22.537434749237395 ] } },
{ "type": "Feature", "properties": { "code": "44030500701202T0006", "lon_gcj02": 113.92099484000001, "lat_gcj02": 22.51175525, "addr": "深圳市地铁9号线西延线南油站项目临建（办公楼一栋）", "name": "深圳市地铁9号线西延线南油站项目临建（办公楼一栋）", "pk": "c22b8c3fb2ec4bd7a5f5b3d1e6980a74", "use_type": 9, "update_year": "2022", "floors": 2, "update_status": 1, "wgs_lon": 113.938200504796, "wgs_lat": 22.517466794220208, "use_name": "其他/other" }, "geometry": { "type": "Point", "coordinates": [ 113.938200504796001, 22.517466794220208 ] } },
{ "type": "Feature", "properties": { "code": "4403050070020400010", "lon_gcj02": 113.9271147, "lat_gcj02": 22.51540871, "addr": "龙城路1号 后海花园7栋", "name": "后海花园7栋", "pk": "c1f279409d584f349a90c28172335da3", "use_type": 3, "update_year": "2022", "floors": 25, "update_status": 1, "wgs_lon": 113.9443343894476, "wgs_lat": 22.521127582969584, "use_name": "办公/office" }, "geometry": { "type": "Point", "coordinates": [ 113.944334389447604, 22.521127582969584 ] } },
{ "type": "Feature", "properties": { "code": "4403050070090100017", "lon_gcj02": 113.92333999, "lat_gcj02": 22.51445754, "addr": "登良路48号 龙城花园9栋", "name": "龙城花园9栋", "pk": "c1ccc28b22ad48a997bc6682045247cb", "use_type": 2, "update_year": "2022", "floors": 6, "update_status": 1, "wgs_lon": 113.94055114559107, "wgs_lat": 22.520172072214535, "use_name": "商业/commercial" }, "geometry": { "type": "Point", "coordinates": [ 113.940551145591073, 22.520172072214535 ] } },
{ "type": "Feature", "properties": { "code": "4403050070060100123", "lon_gcj02": 113.92599239, "lat_gcj02": 22.51107847, "addr": "后海村9号", "name": "后海村9号", "pk": "bd33ff3b744244258e89d594f9a65643", "use_type": 2, "update_year": "2022", "floors": 14, "update_status": 1, "wgs_lon": 113.9432084424554, "wgs_lat": 22.516794817025108, "use_name": "商业/commercial" }, "geometry": { "type": "Point", "coordinates": [ 113.943208442455401, 22.516794817025108 ] } },
{ "type": "Feature", "properties": { "code": "4403050070090100012", "lon_gcj02": 113.92257576, "lat_gcj02": 22.51467202, "addr": "登良路48号 龙城花园18栋", "name": "龙城花园18栋", "pk": "bcc9e6d369204c62a913a92e6f4f95e4", "use_type": 2, "update_year": "2022", "floors": 7, "update_status": 1, "wgs_lon": 113.93978537498525, "wgs_lat": 22.520385867569818, "use_name": "商业/commercial" }, "geometry": { "type": "Point", "coordinates": [ 113.939785374985249, 22.520385867569818 ] } },
{ "type": "Feature", "properties": { "code": "4403050070160500001", "lon_gcj02": 113.92671001, "lat_gcj02": 22.52954978, "addr": "桂庙新村21、22、23、23-1号", "name": "桂庙新村21、22、23、23-1号", "pk": "bc285ee19bc04659b3e3837bca3ef502", "use_type": 1, "update_year": "2022", "floors": 4, "update_status": 1, "wgs_lon": 113.94393237082974, "wgs_lat": 22.535272152035407, "use_name": "住宅/residential" }, "geometry": { "type": "Point", "coordinates": [ 113.943932370829742, 22.535272152035407 ] } },
{ "type": "Feature", "properties": { "code": "4403050070060100110", "lon_gcj02": 113.92615666, "lat_gcj02": 22.51140605, "addr": "后海村14号", "name": "后海村14号", "pk": "ba2d7352ee344c498e1ce5f0581f7106", "use_type": 2, "update_year": "2022", "floors": 10, "update_status": 1, "wgs_lon": 113.94337316322172, "wgs_lat": 22.517122675421533, "use_name": "商业/commercial" }, "geometry": { "type": "Point", "coordinates": [ 113.943373163221722, 22.517122675421533 ] } },
{ "type": "Feature", "properties": { "code": "4403050070050900002", "lon_gcj02": 113.9303068, "lat_gcj02": 22.52035465, "addr": "文心五路33号", "name": "海岸城广场", "pk": "b7c3eaf4387b46d7933a343a5bc33108", "use_type": 4, "update_year": "2022", "floors": 7, "update_status": 1, "wgs_lon": 113.94753529058397, "wgs_lat": 22.526078860336067, "use_name": "工业/industrial" }, "geometry": { "type": "Point", "coordinates": [ 113.947535290583971, 22.526078860336067 ] } },
{ "type": "Feature", "properties": { "code": "4403050070060100024", "lon_gcj02": 113.92652194, "lat_gcj02": 22.51335897, "addr": "后海村143号", "name": "后海村143号", "pk": "b77f1d8262b1438286024567421d20ff", "use_type": 2, "update_year": "2022", "floors": 5, "update_status": 1, "wgs_lon": 113.94373976125082, "wgs_lat": 22.519076572599619, "use_name": "商业/commercial" }, "geometry": { "type": "Point", "coordinates": [ 113.943739761250825, 22.519076572599619 ] } },
{ "type": "Feature", "properties": { "code": "4403050070080500006", "lon_gcj02": 113.93907933, "lat_gcj02": 22.55232305, "addr": "科苑路15号", "name": "科兴科学园B栋", "pk": "b5bd6a52a5124a3a85de608624f5bc07", "use_type": 1, "update_year": "2022", "floors": 20, "update_status": 1, "wgs_lon": 113.95633913119228, "wgs_lat": 22.558068874673008, "use_name": "住宅/residential" }, "geometry": { "type": "Point", "coordinates": [ 113.95633913119228, 22.558068874673008 ] } },
{ "type": "Feature", "properties": { "code": "4403050070150100046", "lon_gcj02": 113.93293142, "lat_gcj02": 22.53581358, "addr": "南海大道3688号", "name": "雨鹃斋", "pk": "b55645f4e46844709064b794947e1de4", "use_type": 2, "update_year": "2022", "floors": 15, "update_status": 1, "wgs_lon": 113.95017040415826, "wgs_lat": 22.541545609362885, "use_name": "商业/commercial" }, "geometry": { "type": "Point", "coordinates": [ 113.950170404158257, 22.541545609362885 ] } },
{ "type": "Feature", "properties": { "code": "4403050070150100031", "lon_gcj02": 113.93235373, "lat_gcj02": 22.53665433, "addr": "南海大道3688号", "name": "海桐斋", "pk": "99aaf237ecc5440497c4f72d86aa2ba2", "use_type": 2, "update_year": "2022", "floors": 6, "update_status": 1, "wgs_lon": 113.94959145567388, "wgs_lat": 22.542385775060922, "use_name": "商业/commercial" }, "geometry": { "type": "Point", "coordinates": [ 113.949591455673882, 22.542385775060922 ] } },
{ "type": "Feature", "properties": { "code": "4403050070060100157", "lon_gcj02": 113.92660803, "lat_gcj02": 22.51146502, "addr": "后海村19号", "name": "后海村19号", "pk": "97955228ab0a4d709632ac8baf970a60", "use_type": 2, "update_year": "2022", "floors": 7, "update_status": 1, "wgs_lon": 113.94382556483994, "wgs_lat": 22.517182172058064, "use_name": "商业/commercial" }, "geometry": { "type": "Point", "coordinates": [ 113.943825564839941, 22.517182172058064 ] } },
{ "type": "Feature", "properties": { "code": "4403050070150100070", "lon_gcj02": 113.92971905, "lat_gcj02": 22.53117036, "addr": "南海大道3688号", "name": "云鹤楼", "pk": "8ed64fdfa17045c493f6ec8501683171", "use_type": 2, "update_year": "2022", "floors": 6, "update_status": 1, "wgs_lon": 113.94694886428493, "wgs_lat": 22.53689681400202, "use_name": "商业/commercial" }, "geometry": { "type": "Point", "coordinates": [ 113.946948864284934, 22.53689681400202 ] } },
{ "type": "Feature", "properties": { "code": "4403050070150100121", "lon_gcj02": 113.93287409, "lat_gcj02": 22.53486026, "addr": "南山区南海大道3688号", "name": "深大其他综合办公室", "pk": "8eb114a939af4600b5abe85826183aab", "use_type": 8, "update_year": "2022", "floors": 2, "update_status": 1, "wgs_lon": 113.95011268490268, "wgs_lat": 22.540591952159684, "use_name": "科教/education" }, "geometry": { "type": "Point", "coordinates": [ 113.950112684902678, 22.540591952159684 ] } },
{ "type": "Feature", "properties": { "code": "4403050070060100106", "lon_gcj02": 113.92599735, "lat_gcj02": 22.51136907, "addr": "后海村31号", "name": "后海村31号", "pk": "8ea8b68e8225445db72b5177eac47497", "use_type": 2, "update_year": "2022", "floors": 6, "update_status": 1, "wgs_lon": 113.94321348734236, "wgs_lat": 22.517085506999599, "use_name": "商业/commercial" }, "geometry": { "type": "Point", "coordinates": [ 113.943213487342362, 22.517085506999599 ] } },
{ "type": "Feature", "properties": { "code": "4403050070080800001", "lon_gcj02": 113.93772337, "lat_gcj02": 22.54876418, "addr": "高新中二道5号", "name": "生产力大楼", "pk": "8e016346db19450d841fb89a9cb7d8b3", "use_type": 7, "update_year": "2022", "floors": 6, "update_status": 1, "wgs_lon": 113.95497845350425, "wgs_lat": 22.554506868973782, "use_name": "混合/mixed" }, "geometry": { "type": "Point", "coordinates": [ 113.954978453504253, 22.554506868973782 ] } },
{ "type": "Feature", "properties": { "code": "4403050070100700028", "lon_gcj02": 113.93041175, "lat_gcj02": 22.54630359, "addr": "南山区科技中一路7号", "name": "华生园基因有限公司食堂", "pk": "b19ae97e7d4e4ec5a4f98f4574606e0f", "use_type": 9, "update_year": "2022", "floors": 1, "update_status": 1, "wgs_lon": 113.9476470945643, "wgs_lat": 22.552034958648704, "use_name": "其他/other" }, "geometry": { "type": "Point", "coordinates": [ 113.947647094564303, 22.552034958648704 ] } },
{ "type": "Feature", "properties": { "code": "4403050070120500012", "lon_gcj02": 113.92300015, "lat_gcj02": 22.50820374, "addr": "东滨路3044号", "name": "南油市政精品城", "pk": "b1732222f9b749339f7c902cf7b3a395", "use_type": 4, "update_year": "2022", "floors": 2, "update_status": 1, "wgs_lon": 113.94020900473231, "wgs_lat": 22.513916120115795, "use_name": "工业/industrial" }, "geometry": { "type": "Point", "coordinates": [ 113.94020900473231, 22.513916120115795 ] } },
{ "type": "Feature", "properties": { "code": "4403050070050600006", "lon_gcj02": 113.92687124, "lat_gcj02": 22.52004303, "addr": "海德一道200号", "name": "海印长城一期1-4栋", "pk": "b0f1a04f80e7410b96e275a2273b32d7", "use_type": 2, "update_year": "2022", "floors": 22, "update_status": 1, "wgs_lon": 113.94409155133302, "wgs_lat": 22.525762941118487, "use_name": "商业/commercial" }, "geometry": { "type": "Point", "coordinates": [ 113.944091551333017, 22.525762941118487 ] } },
{ "type": "Feature", "properties": { "code": "4403050070160300048", "lon_gcj02": 113.92983759000001, "lat_gcj02": 22.52991537, "addr": "桂庙新村77号", "name": "桂庙新村77号", "pk": "b011f2dde99644f986fdc2df5f502495", "use_type": 2, "update_year": "2022", "floors": 7, "update_status": 1, "wgs_lon": 113.94706737143406, "wgs_lat": 22.535641632728666, "use_name": "商业/commercial" }, "geometry": { "type": "Point", "coordinates": [ 113.947067371434059, 22.535641632728666 ] } },
{ "type": "Feature", "properties": { "code": "4403050070060100122", "lon_gcj02": 113.92599752, "lat_gcj02": 22.51113795, "addr": "后海村5号", "name": "后海村5号", "pk": "af05a77ff76f4661bdfc1f98277d9fd6", "use_type": 2, "update_year": "2022", "floors": 3, "update_status": 1, "wgs_lon": 113.94321359902139, "wgs_lat": 22.51685432002165, "use_name": "商业/commercial" }, "geometry": { "type": "Point", "coordinates": [ 113.943213599021391, 22.51685432002165 ] } },
{ "type": "Feature", "properties": { "code": "4403050070060100003", "lon_gcj02": 113.92612167, "lat_gcj02": 22.51378835, "addr": "后海工业区12栋", "name": "后海工业区12栋", "pk": "ad4d50191b5f4c25a569df07b4098fd8", "use_type": 5, "update_year": "2022", "floors": 4, "update_status": 1, "wgs_lon": 113.94333869991937, "wgs_lat": 22.519505625721031, "use_name": "公共/public" }, "geometry": { "type": "Point", "coordinates": [ 113.943338699919366, 22.519505625721031 ] } },
{ "type": "Feature", "properties": { "code": "4403050070060100021", "lon_gcj02": 113.92640411, "lat_gcj02": 22.5134565, "addr": "后海村145号", "name": "后海村145号", "pk": "ac5452095f634c2fb8d5788052f52e39", "use_type": 2, "update_year": "2022", "floors": 8, "update_status": 1, "wgs_lon": 113.94362169017087, "wgs_lat": 22.519173997324792, "use_name": "商业/commercial" }, "geometry": { "type": "Point", "coordinates": [ 113.943621690170872, 22.519173997324792 ] } },
{ "type": "Feature", "properties": { "code": "4403050070101300009", "lon_gcj02": 113.93248682, "lat_gcj02": 22.54480823, "addr": "科技中一路6号", "name": "帝景园二期E栋F栋", "pk": "a8e1ff0f0aef445bafed7349f3f4758c", "use_type": 2, "update_year": "2022", "floors": 8, "update_status": 1, "wgs_lon": 113.9497269575518, "wgs_lat": 22.550542012116992, "use_name": "商业/commercial" }, "geometry": { "type": "Point", "coordinates": [ 113.949726957551803, 22.550542012116992 ] } },
{ "type": "Feature", "properties": { "code": "44030500700419T0003", "lon_gcj02": 113.93362634, "lat_gcj02": 22.52853116, "addr": "深圳大学南校区南方电网10KV变深圳大学电站", "name": "深圳大学南校区南方电网10KV变深圳大学电站", "pk": "a71e41ee6b9c418b9a915b27f1aa05b4", "use_type": 9, "update_year": "2022", "floors": 1, "update_status": 1, "wgs_lon": 113.95086526374293, "wgs_lat": 22.534262203996757, "use_name": "其他/other" }, "geometry": { "type": "Point", "coordinates": [ 113.950865263742926, 22.534262203996757 ] } },
{ "type": "Feature", "properties": { "code": "4403050070060100111", "lon_gcj02": 113.92617564, "lat_gcj02": 22.51133095, "addr": "后海村13号", "name": "后海村13号", "pk": "a661ba8b3cc14c82ae7cc540a6e4c8c7", "use_type": 2, "update_year": "2022", "floors": 7, "update_status": 1, "wgs_lon": 113.94339216669988, "wgs_lat": 22.517047574847549, "use_name": "商业/commercial" }, "geometry": { "type": "Point", "coordinates": [ 113.94339216669988, 22.517047574847549 ] } },
{ "type": "Feature", "properties": { "code": "4403050070150100005", "lon_gcj02": 113.92973347, "lat_gcj02": 22.53934602, "addr": "南海大道3688号", "name": "建材试验中心", "pk": "a5ff1913edd34dcb803162e865a0cc6f", "use_type": 1, "update_year": "2022", "floors": 2, "update_status": 1, "wgs_lon": 113.94696539783409, "wgs_lat": 22.545074690319286, "use_name": "住宅/residential" }, "geometry": { "type": "Point", "coordinates": [ 113.946965397834092, 22.545074690319286 ] } },
{ "type": "Feature", "properties": { "code": "44030500700201T0002", "lon_gcj02": 113.92261876000001, "lat_gcj02": 22.51574853, "addr": "南山区龙城路粤海大厦B座旁边", "name": "南山区龙城路粤海大厦B座旁边", "pk": "a432b95b9d5a446aa9db1de9e812626c", "use_type": 7, "update_year": "2022", "floors": 1, "update_status": 1, "wgs_lon": 113.93982873737505, "wgs_lat": 22.521462727842184, "use_name": "混合/mixed" }, "geometry": { "type": "Point", "coordinates": [ 113.939828737375052, 22.521462727842184 ] } },
{ "type": "Feature", "properties": { "code": "4403050070090200020", "lon_gcj02": 113.92468411, "lat_gcj02": 22.51411233, "addr": "南商路62号", "name": "南油B区70栋", "pk": "a3315dfc6f7840a09e250f79940d5f1a", "use_type": 1, "update_year": "2022", "floors": 7, "update_status": 1, "wgs_lon": 113.94189805193595, "wgs_lat": 22.51982813870012, "use_name": "住宅/residential" }, "geometry": { "type": "Point", "coordinates": [ 113.941898051935951, 22.51982813870012 ] } },
{ "type": "Feature", "properties": { "code": "4403050070101200003", "lon_gcj02": 113.92934521, "lat_gcj02": 22.54439808, "addr": "高新中一路9号", "name": "招商银行金融电子研发中心", "pk": "a2c77039928446d38daf7f97bf9d29f5", "use_type": 7, "update_year": "2022", "floors": 10, "update_status": 1, "wgs_lon": 113.94657748958066, "wgs_lat": 22.550127586272861, "use_name": "混合/mixed" }, "geometry": { "type": "Point", "coordinates": [ 113.946577489580662, 22.550127586272861 ] } },
{ "type": "Feature", "properties": { "code": "4403050070060100146", "lon_gcj02": 113.92663481, "lat_gcj02": 22.51200928, "addr": "后海村59号", "name": "后海村59号", "pk": "a26144e1d4264969ae1a1a7d4a0ae784", "use_type": 3, "update_year": "2022", "floors": 8, "update_status": 1, "wgs_lon": 113.9438525437061, "wgs_lat": 22.51772662050119, "use_name": "办公/office" }, "geometry": { "type": "Point", "coordinates": [ 113.9438525437061, 22.51772662050119 ] } },
{ "type": "Feature", "properties": { "code": "44030500700423T0010", "lon_gcj02": 113.93649891, "lat_gcj02": 22.52873616, "addr": "高新南十道中建二局迅雷大厦项目生活区1栋", "name": "高新南十道中建二局迅雷大厦项目生活区1栋", "pk": "971fd267d14d404d92e56936a49ee90b", "use_type": 2, "update_year": "2022", "floors": 2, "update_status": 1, "wgs_lon": 113.95374552656098, "wgs_lat": 22.534471580957568, "use_name": "商业/commercial" }, "geometry": { "type": "Point", "coordinates": [ 113.953745526560979, 22.534471580957568 ] } },
{ "type": "Feature", "properties": { "code": "4403050070150100071", "lon_gcj02": 113.92941025, "lat_gcj02": 22.53131988, "addr": "南海大道3688号", "name": "云鹏楼", "pk": "971d8a18e0d74c919965a565f52ed154", "use_type": 2, "update_year": "2022", "floors": 6, "update_status": 1, "wgs_lon": 113.94663935986328, "wgs_lat": 22.537045983036748, "use_name": "商业/commercial" }, "geometry": { "type": "Point", "coordinates": [ 113.946639359863283, 22.537045983036748 ] } },
{ "type": "Feature", "properties": { "code": "44030500700601T0008", "lon_gcj02": 113.92585709, "lat_gcj02": 22.51135944, "addr": "后海村31号旁", "name": "后海村31号旁", "pk": "9697cfa1ec6e4f80b169ece97acfc644", "use_type": 2, "update_year": "2022", "floors": 1, "update_status": 1, "wgs_lon": 113.9430729120466, "wgs_lat": 22.517075718698688, "use_name": "商业/commercial" }, "geometry": { "type": "Point", "coordinates": [ 113.943072912046603, 22.517075718698688 ] } },
{ "type": "Feature", "properties": { "code": "4403050070160300015", "lon_gcj02": 113.92997146, "lat_gcj02": 22.53025221, "addr": "桂庙新村81-1号", "name": "桂庙新村81-1号", "pk": "94e282a7cb9b4c6b911fab7a27042e7d", "use_type": 2, "update_year": "2022", "floors": 8, "update_status": 1, "wgs_lon": 113.94720165106908, "wgs_lat": 22.535978736651092, "use_name": "商业/commercial" }, "geometry": { "type": "Point", "coordinates": [ 113.947201651069079, 22.535978736651092 ] } },
{ "type": "Feature", "properties": { "code": "44030500701501T0008", "lon_gcj02": 113.92943099, "lat_gcj02": 22.53919127, "addr": "南山区南海大道3688号深圳大学配电房", "name": "南山区南海大道3688号深圳大学配电房", "pk": "94934e37873f44b5b2761d254b0069a3", "use_type": 8, "update_year": "2022", "floors": 2, "update_status": 1, "wgs_lon": 113.94666215094759, "wgs_lat": 22.544919515356149, "use_name": "科教/education" }, "geometry": { "type": "Point", "coordinates": [ 113.946662150947589, 22.544919515356149 ] } },
{ "type": "Feature", "properties": { "code": "44030500701204T0003", "lon_gcj02": 113.92105721, "lat_gcj02": 22.50878067, "addr": "东滨路10号A区1栋旁配电房", "name": "东滨路10号A区1栋旁配电房", "pk": "94811c5e98a0457ca96938fb597bc101", "use_type": 8, "update_year": "2022", "floors": 1, "update_status": 1, "wgs_lon": 113.93826224387914, "wgs_lat": 22.514491402617569, "use_name": "科教/education" }, "geometry": { "type": "Point", "coordinates": [ 113.938262243879137, 22.514491402617569 ] } },
{ "type": "Feature", "properties": { "code": "4403050070160600004", "lon_gcj02": 113.92898035, "lat_gcj02": 22.5289056, "addr": "桂庙新村47号", "name": "桂庙新村47号", "pk": "913d9664c9c849e7a0d74fda25ae9aea", "use_type": 2, "update_year": "2022", "floors": 4, "update_status": 1, "wgs_lon": 113.94620782006848, "wgs_lat": 22.534630504358329, "use_name": "商业/commercial" }, "geometry": { "type": "Point", "coordinates": [ 113.94620782006848, 22.534630504358329 ] } },
{ "type": "Feature", "properties": { "code": "4403050070160500002", "lon_gcj02": 113.92719199, "lat_gcj02": 22.52956358, "addr": "桂庙新村24号", "name": "桂庙新村24号", "pk": "90c1513a0f1449768b3f616bfa7e3d46", "use_type": 2, "update_year": "2022", "floors": 6, "update_status": 1, "wgs_lon": 113.94441545320117, "wgs_lat": 22.535286511981102, "use_name": "商业/commercial" }, "geometry": { "type": "Point", "coordinates": [ 113.944415453201174, 22.535286511981102 ] } },
{ "type": "Feature", "properties": { "code": "4403050070060100047", "lon_gcj02": 113.92654482, "lat_gcj02": 22.51271437, "addr": "后海村112号", "name": "后海村112号", "pk": "90a7065b874d4a4a8e4fccbda2ab71e4", "use_type": 2, "update_year": "2022", "floors": 7, "update_status": 1, "wgs_lon": 113.94376252921671, "wgs_lat": 22.518431812294345, "use_name": "商业/commercial" }, "geometry": { "type": "Point", "coordinates": [ 113.943762529216713, 22.518431812294345 ] } },
{ "type": "Feature", "properties": { "code": "4403050070060100004", "lon_gcj02": 113.92611886, "lat_gcj02": 22.51350361, "addr": "后海工业区11栋", "name": "后海工业区11栋", "pk": "8faa2ddc1a8240b2ae93c2cd1cf2bc0e", "use_type": 1, "update_year": "2022", "floors": 4, "update_status": 1, "wgs_lon": 113.94333581129952, "wgs_lat": 22.519220800451603, "use_name": "住宅/residential" }, "geometry": { "type": "Point", "coordinates": [ 113.943335811299519, 22.519220800451603 ] } },
{ "type": "Feature", "properties": { "code": "4403050070100700025", "lon_gcj02": 113.93012819, "lat_gcj02": 22.54609115, "addr": "高新中四道30号", "name": "龙泰利科技大厦(海关大厦)", "pk": "81cfdad8d8ec421691bb863233226657", "use_type": 7, "update_year": "2022", "floors": 6, "update_status": 1, "wgs_lon": 113.94736278926061, "wgs_lat": 22.551822095244916, "use_name": "混合/mixed" }, "geometry": { "type": "Point", "coordinates": [ 113.947362789260609, 22.551822095244916 ] } },
{ "type": "Feature", "properties": { "code": "44030500700810T0009", "lon_gcj02": 113.93978239, "lat_gcj02": 22.54452063, "addr": "科兴路11号岗亭", "name": "科兴路11号岗亭", "pk": "7f7cdf1b712a455cb2b132da3a89221a", "use_type": 8, "update_year": "2022", "floors": 1, "update_status": 1, "wgs_lon": 113.95704221331627, "wgs_lat": 22.550265634306058, "use_name": "科教/education" }, "geometry": { "type": "Point", "coordinates": [ 113.957042213316271, 22.550265634306058 ] } },
{ "type": "Feature", "properties": { "code": "4403050070101100010", "lon_gcj02": 113.93660103000001, "lat_gcj02": 22.54498285, "addr": "麻雀岭工业区10栋（高新区中区M—10）", "name": "1号楼", "pk": "7e875e501a26427d86d18aa7bed6318f", "use_type": 5, "update_year": "2022", "floors": 3, "update_status": 1, "wgs_lon": 113.95385205844515, "wgs_lat": 22.55072277527994, "use_name": "公共/public" }, "geometry": { "type": "Point", "coordinates": [ 113.95385205844515, 22.55072277527994 ] } },
{ "type": "Feature", "properties": { "code": "4403050070060100093", "lon_gcj02": 113.92609024, "lat_gcj02": 22.51172809, "addr": "后海村48号", "name": "后海村48", "pk": "7cd8c31726b849adaed9146e438a5736", "use_type": 2, "update_year": "2022", "floors": 6, "update_status": 1, "wgs_lon": 113.94330667624033, "wgs_lat": 22.517444734704217, "use_name": "商业/commercial" }, "geometry": { "type": "Point", "coordinates": [ 113.943306676240326, 22.517444734704217 ] } },
{ "type": "Feature", "properties": { "code": "4403050070060200001", "lon_gcj02": 113.92567529, "lat_gcj02": 22.51066339, "addr": "怡海花园", "name": "怡海花园1栋", "pk": "7c6e6a2ab7ef49dda38c8c55d090a5fa", "use_type": 3, "update_year": "2022", "floors": 8, "update_status": 2, "wgs_lon": 113.94289053116846, "wgs_lat": 22.516379266001387, "use_name": "办公/office" }, "geometry": { "type": "Point", "coordinates": [ 113.942890531168459, 22.516379266001387 ] } },