统一地址编码,中心坐标,中心点坐标,常用地址,名称,主键,使用用途,更新时间,总层数,更新状态,用途名称,lon_wgs,lat_wgs,in_nanshan
4403050070060100127,113.92672006,22.51380796,后海天后庙,后海天后宫,eae10302c5344c64936438e2fa1f4663,8,2022,1,1,教育/医疗,22.51380796,113.92672006,False
4403050070150100137,113.93143831,22.53687988,南山区南海大道3688号,深圳大学档案馆,e8aab5a56e9d4006afa62a48cadf95b0,8,2022,6,1,教育/医疗,22.53687988,113.93143831,False
4403050070101000002,113.93389721,22.54659471,高新中四道6号,凯丽花园12栋,e4fd700d49334c89b07d3e411bb03223,2,2022,8,1,商业/办公,22.54659471,113.93389721,False
4403050070070100003,113.92461591,22.51038296,华明路1号,海映山庄8栋,e466a533c2e74bfa9d2e503a22d301c5,2,2022,6,1,商业/办公,22.51038296,113.92461591,False
4403050070060100067,113.92644119,22.51211039,后海村69号,后海村69号,d9b8cc9fa27840d9902ea517fade008b,3,2022,4,1,工业,22.51211039,113.92644119,False
4403050070030600004,113.95025026,22.54467738,科润路21号,华润城华润置地大厦7栋C座,d95ece0212e94623bc4ab929c1f9278b,4,2022,4,1,混合,22.54467738,113.95025026,False
4403050070090100015,113.92251869,22.51443277,登良路48号 龙城花园16栋,龙城花园16栋,d7263a41dbb942349d467c70ab8593b7,2,2022,7,1,商业/办公,22.51443277,113.92251869,False
4403050070020100006,113.92294171,22.51608043,龙城路106号,粤海小区B座,ffe464ff787e4dc990763c33f4a20c41,3,2022,8,1,工业,22.51608043,113.92294171,False
4403050070120400016,113.92181385,22.50984546,建南路5号,南油A区14栋,fef765ab3a8940d0acd7e3f6f037b17b,2,2022,6,1,商业/办公,22.50984546,113.92181385,False
4403050070140400010,113.93109038,22.51223856,华明路1号,蔚蓝海岸二期15栋,fde1008d2db345828ae0ad23974d2163,2,2022,12,1,商业/办公,22.51223856,113.93109038,False
4403050070120400011,113.92162347,22.51051471,建南路21号,南油A区22栋,fd02cfffa74d4d95920eceeb035368bf,1,2022,9,1,住宅,22.51051471,113.92162347,False
4403050070120100024,113.92457443,22.51132681,兴南路54号6栋,南油B区16栋,fcd7af0e6f45402f81d72f116c9692ff,1,2022,6,1,住宅,22.51132681,113.92457443,False
44030500700808T0025,113.93728043,22.54699518,深圳市南山区粤海街道科技中三路6-2号,深圳市南山区粤海街道科技中三路6-2号,fcd2a3c4582a4277b111de60dd791564,4,2022,1,1,混合,22.54699518,113.93728043,False
4403050070060100074,113.92602978,22.51216647,后海村67号,后海村67号,fc36e21cfff9443f9e29074254ce7746,3,2022,9,1,工业,22.51216647,113.92602978,False
4403050070020200001,113.92441639,22.51747427,深圳市南山区创业路7-51号,中国建设银行南油支行,fab14d7060984fca8eb174bb3cb3e390,3,2022,2,1,工业,22.51747427,113.92441639,False
4403050070150100084,113.92671398,22.52978748,南海大道3688号,苏铁轩,f93e25cc784b4e8f8f8c6aca57429dd8,2,2022,6,1,商业/办公,22.52978748,113.92671398,False
4403050070060100124,113.92599701,22.51094056,后海村1号,后海村1号,f75e0d79da14425892e86acf259a3c17,2,2022,6,1,商业/办公,22.51094056,113.92599701,False
4403050070050700001,113.92918454,22.52154637,海德三道199号,天利中央广场,f5a83b7a6c0848938f72a8b8e94cd60d,4,2022,33,1,混合,22.52154637,113.92918454,False
4403050070060100029,113.92648034,22.51317282,后海村136号,后海村136号,f43175e1d6114321928b3eb2d901e7cd,2,2022,4,1,商业/办公,22.51317282,113.92648034,False
4403050070140400021,113.93030103,22.50977801,华明路1号,蔚蓝海岸一期10栋,f0f79e701065466e9b721104d4ca16c7,2,2022,13,1,商业/办公,22.50977801,113.93030103,False
4403050070160500005,113.92683282,22.52914586,桂庙新村28号,桂庙新村28号,e2e83ca010cd47ff8dad897e7a77c618,1,2022,4,1,住宅,22.52914586,113.92683282,False
4403050070150100111,113.92921165,22.53735446,南山区南海大道3688号,深大教工餐厅,e279067dcb9443d38d000386e3a4ab7c,8,2022,3,1,教育/医疗,22.53735446,113.92921165,False
4403050070051500005,113.93204739,22.51783676,创业路4号,观海台花园7栋,e02a1bc7037847babfbbb35f33cb2484,2,2022,11,1,商业/办公,22.51783676,113.93204739,False
4403050070080100038,113.94822922,22.55318677,青梧路2号,科苑学里4栋,de36126765b7428bb1b0ae7d43cc9b07,2,2022,15,1,商业/办公,22.55318677,113.94822922,False
4403050070080300002,113.94629576,22.55239959,青梧路2号,科技园58区2栋,de249bf9119f4b61b547e803af474683,2,2022,7,1,商业/办公,22.55239959,113.94629576,False
4403050070060100126,113.92631972,22.51103326,后海村7号,后海村7号,ddcd6a7e643d4df5bfff5e9e03422559,2,2022,7,1,商业/办公,22.51103326,113.92631972,False
4403050070020400008,113.92707229,22.51697685,后海大道2491号,荣泰综合楼,ddace182685542afa2b84b510c3d14be,4,2022,3,1,混合,22.51697685,113.92707229,False
4403050070060100148,113.92664331,22.51191295,后海村56号B,后海村56号B,dbbbac00793e4c0e8b1e45a19e7c8f94,2,2022,7,1,商业/办公,22.51191295,113.92664331,False
4403050070060100087,113.92599907,22.51200969,后海村52号B,后海村52号B,dbaa4336b6754d2e9d120bc4de55a294,2,2022,6,1,商业/办公,22.51200969,113.92599907,False
4403050070060200017,113.92702362,22.510302,后海第三统建楼,后海第三统建楼,db8eecc67fb84b79bbdbfe79ca9d57c2,3,2022,8,1,工业,22.510302,113.92702362,False
4403050070060100030,113.92663866,22.51318052,后海村131号,后海村131,d160928fe2834a09a03f7345679dcb9e,1,2022,7,1,住宅,22.51318052,113.92663866,False
4403050070120400024,113.92146557,22.51015371,南山区建南路15号,建南路15号垃圾房,cfc5ab672f4141e68585fe997e71c836,8,2022,1,1,教育/医疗,22.51015371,113.92146557,False
4403050070060100149,113.92669941,22.51190651,后海村56号C,后海村56号C,ce9211ed6c54484ca0dbda594f7a3297,2,2022,11,1,商业/办公,22.51190651,113.92669941,False
4403050070090100016,113.92288921,22.51444584,登良路48号 龙城花园15栋,龙城花园15栋,cc309c636f9c47caa61248908aef236a,2,2022,7,1,商业/办公,22.51444584,113.92288921,False
4403050070150100145,113.93427825,22.53696448,2#宿舍,2#宿舍,cb163a7ba61949358e21132e7569eaa0,2,2022,10,1,商业/办公,22.53696448,113.93427825,False
4403050070051500001,113.93187938,22.51820534,创业路4号,观海台花园A栋,c4c48bd88e584005b5e1846d0a7e5e7f,2,2022,18,1,商业/办公,22.51820534,113.93187938,False
4403050070060100017,113.9264193,22.5137319,后海村149号,后海村149号,c23e75e2714445c0b70d50afc0f25f65,2,2022,4,1,商业/办公,22.5137319,113.9264193,False
4403050070160300003,113.92828893,22.52975195,桂庙新村103号,桂庙新村103号,be077ca7b5e0456fb8b804e7a1fbdc60,2,2022,7,1,商业/办公,22.52975195,113.92828893,False
4403050070030600003,113.9507424,22.54487145,科润路19号,华润城华润置地大厦7栋D座,bd73a2bc74824d9f96aa5b5a3bf95d7e,4,2022,2,1,混合,22.54487145,113.9507424,False
4403050070070200015,113.92607064,22.50838992,兴南路52号,南海花园A09栋,bd492fac2ba34930a13364d57c621e8c,2,2022,2,1,商业/办公,22.50838992,113.92607064,False
4403050070070200003,113.92487509,22.50845817,兴南路52号,南海花园海丰阁,bbcbb511e1a1493f99c681c91cd335f5,2,2022,3,1,商业/办公,22.50845817,113.92487509,False
4403050070110400010,113.92792004,22.50984126,后海大道2008号城脉地产深圳湾公馆,城脉地产深圳湾公馆,bb7aa06802e6479c9267761015db7a99,3,2022,54,1,工业,22.50984126,113.92792004,False
4403050070160200043,113.93665436,22.53573831,白石路3818号,阳光粤海花园二期3栋,bb0f7c3562864d1bb1ce2663a9e42c74,4,2022,39,1,混合,22.53573831,113.93665436,False
4403050070020100005,113.9229815,22.51640961,龙城路108号,粤海小区C座,ba05969145284d09a32987dd6a559cfb,3,2022,8,1,工业,22.51640961,113.9229815,False
4403050070051500004,113.932215,22.51726695,创业路4号,观海台花园5、3、1栋,b9f30737738940228c2ad9334a130d8a,2,2022,9,1,商业/办公,22.51726695,113.932215,False
4403050070120100008,113.92572578,22.51399258,后海工业区13栋,后海工业区13栋,b897935b846742a5a4f2741ffb59279a,5,2022,4,1,公共设施,22.51399258,113.92572578,False
4403050070060100010,113.92572459,22.51142992,后海工业区S3栋,后海工业区S3栋,b6efb64f912e4c2bafd19c7a3dfb6dc4,1,2022,7,1,住宅,22.51142992,113.92572459,False
4403050070150100068,113.9285497,22.53093201,南海大道3688号,襟山楼,b4e62b90b46943fc92880ba9861e6d24,2,2022,6,1,商业/办公,22.53093201,113.9285497,False
4403050070060100120,113.92644207,22.51142491,后海村16号,后海村16号,99994b0e2e9d476e8bbd24dae6a47d69,2,2022,9,1,商业/办公,22.51142491,113.92644207,False
4403050070110300009,113.92884592,22.51270156,登良路7-40,招商名仕花园14栋,9778ab1aa82349ef8538ea4fe4b13969,3,2022,7,1,工业,22.51270156,113.92884592,False
4403050070120400015,113.92183736,22.51007229,建南路5号,南油A区15栋,8d948a8ea2a44f9e97eecd490d82731f,2,2022,6,1,商业/办公,22.51007229,113.92183736,False
4403050070120500013,113.92378191,22.50892762,东滨路3036号,南油文化广场,8c058a41fd384d258cc2f7b6549035f9,1,2022,4,1,住宅,22.50892762,113.92378191,False
4403050070070200004,113.92507636,22.50846202,兴南路52号,南海花园海威阁,8a1d2e08efae40ce91e4509ef99f3403,2,2022,3,1,商业/办公,22.50846202,113.92507636,False
4403050070041900013,113.93435744,22.53013817,白石路3883号深圳大学南校区,深圳大学医学院,b4e3df4c8746405fa9f622e7eb3e77b4,9,2022,7,1,未知,22.53013817,113.93435744,False
4403050070060100065,113.92642579,22.51221451,后海村74号,后海村74号,b38ec2256d804f66b29e8152725bc76d,2,2022,4,1,商业/办公,22.51221451,113.92642579,False
4403050070020100008,113.9235418,22.5173031,创业路9号,金海岸大厦,b2f46ed9903a44a3b245330b88a7cac8,3,2022,30,1,工业,22.5173031,113.9235418,False
4403050070080200009,113.93952529,22.55335158,长园新材料港B栋,长园新材料港2栋,af6f7f0fdc014eceaa3690a4118ea0a7,5,2022,5,1,公共设施,22.55335158,113.93952529,False
4403050070140400029,113.93190885,22.51055554,华明路1号,蔚蓝海岸二期21栋,ad6c40f0951c4b5c823583aebc60ed47,2,2022,30,1,商业/办公,22.51055554,113.93190885,False
4403050070080100035,113.94658673,22.55315531,青梧路2号,科苑学里1栋,acfc1fc2d2b64bddb3f75ae1994b1f04,2,2022,13,1,商业/办公,22.55315531,113.94658673,False
4403050070150100013,113.93358467,22.54120769,南海大道3688号,建筑与土木工程学院,ab17caec26c64c888dd56b60fb912046,1,2022,5,1,住宅,22.54120769,113.93358467,False
4403050070140300012,113.93414086,22.50962775,兰香一街8号,新百丽大厦,aabd2632cc8c47a1971bf16284c899e5,4,2022,35,1,混合,22.50962775,113.93414086,False
4403050070010200011,113.92714185,22.52747517,学府路99号,学林雅院3栋,aa80666764254990be989b01c01db1ca,2,2022,7,1,商业/办公,22.52747517,113.92714185,False
4403050070060100121,113.92649863,22.51134867,后海小庙,后海小庙,a855a59bcc804662be4667c54c11a9b9,8,2022,1,1,教育/医疗,22.51134867,113.92649863,False
4403050070140400014,113.93099298,22.51116889,华明路1号,蔚蓝海岸二期8栋、9栋,a77014cd00574b3d94b1f3078249b659,2,2022,19,1,商业/办公,22.51116889,113.93099298,False
4403050070060100075,113.92617185,22.51214267,后海村68号,后海村68号,a6dab9ddda3b484f8cc9a31a91c6d095,2,2022,8,1,商业/办公,22.51214267,113.92617185,False
44030500701604T0001,113.93091891,22.53018904,桂庙新村牌坊旁铁皮房,桂庙新村牌坊旁铁皮房,958bec83143e46108f576b393f94300e,3,2022,2,1,工业,22.53018904,113.93091891,False
4403050070020100011,113.92359802,22.51589155,南商路91号,深蓝公寓,9521938bf0e04243b5be1ec0039e2b47,3,2022,32,1,工业,22.51589155,113.92359802,False
4403050070010300003,113.92790613,22.52777593,勤学路8号,锦隆花园锦隆幼儿园,91baae8685db4cd0a1af096cb35e0824,1,2022,3,1,住宅,22.52777593,113.92790613,False
4403050070020400006,113.92642398,22.51657514,龙城路4号,云海天城知行世家幼儿园,879260ab68e14a6f8cfdf25fd9563633,7,2022,2,1,城中村,22.51657514,113.92642398,False
4403050070020100009,113.92379849,22.51675517,南商路97号,华英大厦,8773c08b5f4e469f81319a7efe6318ee,7,2022,11,1,城中村,22.51675517,113.92379849,False
4403050070060100092,113.92596596,22.51161517,后海村33号,后海村33号,84f2556b95fe461199fc8ec774c93776,2,2022,8,1,商业/办公,22.51161517,113.92596596,False
4403050070060200010,113.92602991,22.50981783,华明路17号,怡海花园7栋,84812398deca4d06baf19fd396c94dac,2,2022,7,1,商业/办公,22.50981783,113.92602991,False
44030500701202T0011,113.92127977,22.51228686,深圳市地铁9号线西延线南油站项目临建(宿舍四栋）,深圳市地铁9号线西延线南油站项目临建(宿舍四栋）,840afdef5268462fb04b426fab61c122,2,2022,2,1,商业/办公,22.51228686,113.92127977,False
4403050070060100105,113.92598902,22.51147894,后海村32号,后海村32号,8155d049dbc84d75a137f2bf3adeda7e,2,2022,4,1,商业/办公,22.51147894,113.92598902,False
4403050070110100010,113.92882438,22.51535446,粤琴一路22号,天海花园1栋,8038026ea1ba43269bdb3309379a5182,2,2022,7,1,商业/办公,22.51535446,113.92882438,False
4403050070100400012,113.93073883,22.55233851,高新中一道19号,赛百诺饭堂,80134d0a150e488e9ee1fcb7363af38a,4,2022,1,1,混合,22.55233851,113.93073883,False
4403050070060100070,113.92655853,22.51232257,后海村80号,后海村80号,7fddce6368584b31b0bb615e83766324,2,2022,8,1,商业/办公,22.51232257,113.92655853,False
4403050070060100028,113.92649852,22.51322223,后海村137号,后海村137号,7fce11ee0958434ba18785852e58d453,2,2022,6,1,商业/办公,22.51322223,113.92649852,False
4403050070150100020,113.92696325,22.53149434,南海大道3688号,花圃办公室,7fa401df882d4cd8947df432f48ed3bf,7,2022,2,1,城中村,22.53149434,113.92696325,False
4403050070051300002,113.92944061,22.51891458,后海大道2712号,乐安居家具,7f6ea4bc34f54ba5badb605369af788f,4,2022,4,1,混合,22.51891458,113.92944061,False
44030500701205T0001,113.92272069,22.50970378,南商路,南商路,7d6ebc55ebf84dc2b85ad74b8e4038bc,4,2022,1,1,混合,22.50970378,113.92272069,False
4403050070120300011,113.92329147,22.51121658,华明路4号,南乐雅苑管理处,7a9d28deb69740639caaf81b94744c67,1,2022,1,1,住宅,22.51121658,113.92329147,False
4403050070140500001,113.93079038,22.50932438,东滨路北师大南山附中,接待大厅,784228bb9215454da6563ebd21381897,8,2022,6,1,教育/医疗,22.50932438,113.93079038,False
4403050070010200012,113.92591755,22.52724339,学海路1号,海文花园海天阁A.B,77717a6d8d4745b6b8e662499ae43c3c,2,2022,11,1,商业/办公,22.52724339,113.92591755,False
4403050070160600023,113.92949996,22.52860178,桂庙新村56-1号,桂庙新村56-1号,76277098f33a4bcf9fabbf63bed9c8a4,2,2022,7,1,商业/办公,22.52860178,113.92949996,False
4403050070060100125,113.92621276,22.51096272,后海村2号,后海村2号,73710783afce419d878b9d8bc0aff004,2,2022,5,1,商业/办公,22.51096272,113.92621276,False
4403050070060100098,113.92624541,22.51170661,后海村40号,后海村40号,7041a99c4d7f47f3bfa0b3ae29e62369,2,2022,3,1,商业/办公,22.51170661,113.92624541,False
4403050070020100007,113.92293142,22.5157848,龙城路104号,粤海小区A座,6f87203da44047989a4553a1010c5003,7,2022,8,1,城中村,22.5157848,113.92293142,False
4403050070050500022,113.93750539,22.52346627,滨海大道3099号,五矿金融大厦,6f1236db3abb4ddfba708262529fe02e,4,2022,33,1,混合,22.52346627,113.93750539,False
4403050070140400015,113.92930208,22.51066054,华明路1号,蔚蓝海岸一期1栋,6d3551bc402343ecb99143379ee5f602,2,2022,11,1,商业/办公,22.51066054,113.92930208,False
4403050070150100054,113.93112042,22.53438901,南海大道3688号,新图书馆,52e5a12eac734652a24067d9c6dff2af,1,2022,5,1,住宅,22.53438901,113.93112042,False
4403050070160600020,113.92926948,22.52846555,桂庙新村56-5号,桂庙新村56-5号,51e251b8f55549b798bd7440d6410bc1,2,2022,6,1,商业/办公,22.52846555,113.92926948,False
4403050070010200001,113.92512156,22.52742155,书山路23号东门,创世纪滨海花园1.2.3.4栋,4c0678e12f7f4b14b85085491b025bf3,2,2022,17,1,商业/办公,22.52742155,113.92512156,False
4403050070160600025,113.92982834,22.52840202,学府路30号,武装部,401db71d90c64d12a26bf91da6eaf3e9,1,2022,6,1,住宅,22.52840202,113.92982834,False
4403050070160300022,113.92846428,22.52907812,桂庙新村70号,桂庙新村70号,3d5bc304b5bf42e3ab879006c91d628d,2,2022,4,1,商业/办公,22.52907812,113.92846428,False
4403050070060100036,113.92614652,22.5130177,后海村109号,后海村109号,3d449fdb599f4d71a3c7f6928bcea433,2,2022,9,1,商业/办公,22.5130177,113.92614652,False
4403050070060100025,113.92650941,22.51329106,后海村138号,后海村138号,3d22ead882d3495c8df711241b429867,2,2022,5,1,商业/办公,22.51329106,113.92650941,False
4403050070060100083,113.92627572,22.51198349,后海村60号,后海村60号,3ade9efc51c14a0dacd7fa45dfa3ccc8,2,2022,5,1,商业/办公,22.51198349,113.92627572,False
4403050070150100034,113.93288654,22.53636036,南海大道3688号,凌霄斋,3a6a7a83f6e448e886ec5f4fd572542f,2,2022,6,1,商业/办公,22.53636036,113.93288654,False
4403050070110300012,113.92899451,22.51215368,登良路7-40,招商名仕花园12栋,394cd5f5cade4ce8b0868630bc25e3ee,2,2022,8,1,商业/办公,22.51215368,113.92899451,False
4403050070120400007,113.92126847,22.51092708,建南路35号,南油A区20栋,6b0512444f1b47789979e242b2afe713,1,2022,9,1,住宅,22.51092708,113.92126847,False
4403050070120500010,113.92408828,22.51042378,华明路3号,南油幼儿园,6aa6eac9788e48fbab910f9304e950fa,8,2022,3,1,教育/医疗,22.51042378,113.92408828,False
4403050070070100004,113.92514689,22.51034616,兴南路12号,海映山庄7栋,679db5e6b4be47a88b9be45c66dd9a56,2,2022,6,1,商业/办公,22.51034616,113.92514689,False
4403050070060100099,113.92625719,22.51164587,后海村35号,后海村35号,674f50baf5544e0cb3a404c76e1f83fc,2,2022,8,1,商业/办公,22.51164587,113.92625719,False
4403050070150100064,113.92839194,22.53115478,南海大道3688号,倚风楼,654fa27c9e2d4e13a3e8e0036c964866,2,2022,6,1,商业/办公,22.53115478,113.92839194,False
4403050070110300008,113.92819966,22.51110611,登良路7-40 招商名仕花园1-7栋,招商名仕花园1-7栋,6530947acb534c8fb508910232410ea1,2,2022,7,1,商业/办公,22.51110611,113.92819966,False
4403050070060100147,113.92656138,22.51192253,后海村56号A,后海村56号A,61c19f3a1f1540719639aa7bfe678f4d,2,2022,11,1,商业/办公,22.51192253,113.92656138,False
4403050070140400009,113.93053188,22.51222334,华明路1号,蔚蓝海岸二期13栋,607f1eb30eba464cbbbb8f0493a26d1d,2,2022,12,1,商业/办公,22.51222334,113.93053188,False
4403050070160300067,113.92882888,22.52967669,桂庙新村68-4号,桂庙新村68-4号,5ffaec107ec648d4a51128d48d9496aa,4,2022,1,1,混合,22.52967669,113.92882888,False
4403050070050100004,113.92547779,22.52275056,海德二道288号,茂业时代广场,5eec3000c4b344bdadf2024ea8ed35cf,4,2022,0,1,混合,22.52275056,113.92547779,False
4403050070070100005,113.92462558,22.51007623,华明路1号,海映山庄6栋,5e6d6145a9ad4b1aa057bfdcf6647089,2,2022,6,1,商业/办公,22.51007623,113.92462558,False
4403050070060100068,113.92651673,22.5124339,后海村84号,后海村84号,5dc6c489631a4eff84c75b6c519a3a62,2,2022,3,1,商业/办公,22.5124339,113.92651673,False
4403050070051400003,113.92671355,22.51933661,南山区海德一道223号,海岸明珠,5b64e3ec66274380ba3a8bd9379bd3de,3,2022,26,1,工业,22.51933661,113.92671355,False
44030500701403T0032,113.93953302,22.51351479,达濠市政道路建设项目部,达濠市政道路建设项目部,5762487e55bf4b0bafb5c1eb80e8e429,9,2022,2,1,未知,22.51351479,113.93953302,False
4403050070150100136,113.92728781,22.53207943,南山区南海大道3688号,花圃水泵房,468e1cc5e99148ae836a049ed83c7dd1,8,2022,2,1,教育/医疗,22.53207943,113.92728781,False
4403050070140200001,113.93206133,22.516238,登良路8号,蔚蓝海岸三期39栋,443eb50bf16044eba88a8a77f8cc1d4a,2,2022,18,1,商业/办公,22.516238,113.93206133,False
4403050070120400008,113.92154608,22.51097898,建南路29号,南油A区19栋,423b5e14ebd347eebae2a68ed70a3d8f,1,2022,9,1,住宅,22.51097898,113.92154608,False
4403050070150100138,113.93495738,22.53764717,南山区南海大道3688号,深大公共教室,3543ba828c204ca98b8600fe97fa594d,8,2022,1,1,教育/医疗,22.53764717,113.93495738,False
4403050070140400020,113.92947876,22.50963516,华明路1号,蔚蓝海岸一期6栋,335a10dd82cd43a094756a8ebae509eb,2,2022,11,1,商业/办公,22.50963516,113.92947876,False
44030500701501T0006,113.92897022,22.53118279,南山区南海大道3688号深大海志楼北配电室,南山区南海大道3688号深大海志楼北配电室,2ecebd14516d4c3fbab5fd762d262d8b,8,2022,1,1,教育/医疗,22.53118279,113.92897022,False
4403050070010200002,113.92552275,22.52619955,书山路23号,创世纪滨海花园5.6.7栋,2cf978838046469780ed3d0e6d9485e8,2,2022,26,1,商业/办公,22.52619955,113.92552275,False
4403050070140300013,113.9359469,22.5120705,中心路3331号,中建钢构大厦及中国建筑钢结构博物馆,2aa3afcd7855487aaefdfb103d3e2ffc,4,2022,41,1,混合,22.5120705,113.9359469,False
4403050070020400007,113.92700406,22.51624566,龙城路4号,云海天城,29e950dd62a74a35b93488ab60e3297e,1,2022,34,1,住宅,22.51624566,113.92700406,False
4403050070060200009,113.92604917,22.51008994,华明路17号,怡海花园8栋,2946a5e978dc40e5ab216da4b97d01a8,2,2022,7,1,商业/办公,22.51008994,113.92604917,False
4403050070020100010,113.92357575,22.51633549,南商路95号,南山区防疫站,28ea2430e6e34c6b83c2814f7c093890,7,2022,10,1,城中村,22.51633549,113.92357575,False
4403050070060100128,113.92676981,22.51352639,后海村152号,后海村152号,276d3cf953f74129912513ea07b3c79d,2,2022,7,1,商业/办公,22.51352639,113.92676981,False
4403050070060100026,113.92662946,22.5132596,后海村133号,后海村133号,271f1819045d4e009ac42a8b512466e2,1,2022,5,1,住宅,22.5132596,113.92662946,False
44030500701606T0001,113.92890197,22.52854565,桂庙新村43-2号东配电室,桂庙新村43-2号东配电室,261987613e534bf490c0fbae3e7b574a,9,2022,1,1,未知,22.52854565,113.92890197,False
4403050070160300010,113.92920886,22.53013946,桂庙新村39-1号,桂庙新村39-1号,2550f40a2e9e40e2b9b4dfe37c1e9362,2,2022,6,1,商业/办公,22.53013946,113.92920886,False
4403050070150100055,113.93240597,22.53383562,南海大道3688号,艺术学院,2523d30b55964523add7dbdaaface562,1,2022,2,1,住宅,22.53383562,113.93240597,False
4403050070160500013,113.92732513,22.52876011,桂庙新村41号,桂庙新村41号,2514aee61707434e9b65622fc524f54f,4,2022,6,1,混合,22.52876011,113.92732513,False
4403050070150100097,113.93123721,22.53100149,南海大道3688号,"海滨小区6栋,7栋",246c2b4a691f46a4ac23a59a39af777e,2,2022,7,1,商业/办公,22.53100149,113.93123721,False
4403050070120500017,113.92386847,22.51012129,南山区华明路5号东南,南油幼儿园门卫室,1c4a74532acd423da235f838996340a9,9,2022,1,1,未知,22.51012129,113.92386847,False
4403050070160600018,113.92937002,22.52867197,桂庙新村56-4号,桂庙新村56-4号,0639b0b8622e4ccaaed798cbf1559dbd,2,2022,12,1,商业/办公,22.52867197,113.92937002,False
4403050070060100095,113.92620826,22.51182338,后海村43号,后海村43,0565968c813546e8b7d778341114e67c,2,2022,4,1,商业/办公,22.51182338,113.92620826,False
44030500701204T0001,113.92104357,22.50928746,南油东滨花场,南油东滨花场,0403e3085f5e4a2d9d7ba3a2c0d2cefd,8,2022,0,1,教育/医疗,22.50928746,113.92104357,False
4403050070150100122,113.93696243,22.53973707,南山区南海大道3688号,低植易耗品配送中心门卫室,03dd8ef121b84aa4b26d93a4d0e38494,8,2022,1,1,教育/医疗,22.53973707,113.93696243,False
4403050070020100004,113.92317285,22.51679406,南海大道2618号,粤海街道办事处,010bed5bc2824ebbbd2096baf2ff3941,7,2022,8,1,城中村,22.51679406,113.92317285,False
4403050070120100025,113.92457956,22.51113389,兴南路54号4栋,南油B区14栋,00091737d5d54ca4809d7b6770cffed4,2,2022,6,1,商业/办公,22.51113389,113.92457956,False
4403050070120300002,113.92359292,22.51259339,南商路22号9栋,南油B区64栋,19ebe8a1b3ed419eb0a982e0ecfb2b3e,2,2022,6,1,商业/办公,22.51259339,113.92359292,False
4403050070120500006,113.92235353,22.50860822,建南路5号,南油A区1栋,187a71572bd646adaa31c2bbf7f487ce,2,2022,6,1,商业/办公,22.50860822,113.92235353,False
4403050070060100084,113.9262749,22.51194133,后海村54号,后海村54号,12620c7d2d7d43a0b25b8f3d73cb77dc,2,2022,8,1,商业/办公,22.51194133,113.9262749,False
44030500701202T0015,113.92150109,22.5126808,深圳市地贴9号线西延线南油站项目临建（工人宿舍九栋）,深圳市地贴9号线西延线南油站项目临建（工人宿舍九栋）,0f589aab4bc94f01989f30955d55d47c,2,2022,2,1,商业/办公,22.5126808,113.92150109,False
4403050070060200008,113.92605603,22.51030403,华明路17号,怡海花园9栋,0da647ef1e3c478daab97a8b7f77963c,2,2022,7,1,商业/办公,22.51030403,113.92605603,False
4403050070030500010,113.94728753,22.54525133,科技路18号,大冲新城花园2栋1D座,ed9ed930210c4bfab454e28048612404,1,2022,47,1,住宅,22.54525133,113.94728753,False
4403050070050600005,113.92720545,22.52051183,后海大道2551号,青少年活动中心,ebd6a8db41674b08ad7066388bc0b3dd,1,2022,3,1,住宅,22.52051183,113.92720545,False
4403050070030600007,113.95023831,22.54511183,科润路22号,华润城华润置地大厦4栋,e9809e591b394302aea86b5846436818,4,2022,2,1,混合,22.54511183,113.95023831,False
4403050070060100071,113.9265634,22.51226368,后海村75号,后海村75号,e86f610d92f14f8aabae569a6916e2f4,2,2022,7,1,商业/办公,22.51226368,113.9265634,False
4403050070060200013,113.92648482,22.50967761,后海大道2061号,后海别墅A06,e7d41175f8ab42b7a2c336cceb12acc6,2,2022,3,1,商业/办公,22.50967761,113.92648482,False
4403050070060200005,113.92555543,22.5097669,华明路17号,怡海花园5栋,e7249aefbd3f4b46b84d8ea15339a96e,2,2022,7,1,商业/办公,22.5097669,113.92555543,False
4403050070140400027,113.9318881,22.51161809,华明路1号,蔚蓝海岸二期23栋,e64ef4ba66924187832518224cd2cdb7,2,2022,28,1,商业/办公,22.51161809,113.9318881,False
4403050070120100010,113.92564595,22.51313251,后海工业区8栋,后海工业区8栋,da926837d3eb4489a190123da07415b5,1,2022,7,1,住宅,22.51313251,113.92564595,False
4403050070130200030,113.9529563,22.5515728,铜鼓路98号,华润城润府（四期）1栋,d91fff71bec54c4fb661ce89c2ca24ef,2,2022,60,1,商业/办公,22.5515728,113.9529563,False
4403050070160500008,113.92679132,22.52890007,桂庙新村29、31号,桂庙新村29、31号,d69660a944b94bef9c965407c8427ddd,1,2022,4,1,住宅,22.52890007,113.92679132,False
4403050070060100156,113.92679626,22.51163714,后海村23-1号,后海村23-1号,d553715fba51434ea2130cd42ad7630e,1,2022,0,1,住宅,22.51163714,113.92679626,False
4403050070060100043,113.92665543,22.51278421,后海村113号,后海村113号,d398b6b1dc46431285da40db8f74fb02,2,2022,3,1,商业/办公,22.51278421,113.92665543,False
4403050070130300004,113.94662758,22.5482826,大冲水厂路563号,大冲水厂饭堂,d3440ab2ec2941fc8d1891deb088a364,1,2022,2,1,住宅,22.5482826,113.94662758,False
4403050070090100004,113.92306819,22.51540236,登良路48号 龙城花园23栋,龙城花园23栋,d2b796fc45ba4a37b79a80a22993574f,2,2022,7,1,商业/办公,22.51540236,113.92306819,False
4403050070150100015,113.93373654,22.53971678,南海大道3688号,体育场馆中心,d1f69d67befa43bb80aca0cd34f87570,8,2022,3,1,教育/医疗,22.53971678,113.93373654,False
4403050070150100009,113.92982561,22.53749207,南海大道3688号,深圳大学材料学院,ffcd9e298fa44dcfae8e3d613f1b5567,7,2022,2,1,城中村,22.53749207,113.92982561,False
4403050070090200006,113.92556108,22.51514515,龙城路47号南油B区43栋,南油B区43栋,fc5e97126c7e4feea2992528f6c9f8a5,2,2022,7,1,商业/办公,22.51514515,113.92556108,False
4403050070042400007,113.94792549,22.53131306,高新南环路22号,深圳湾科技生态园4栋,f8d86839c841449e98dfebdb5c3cb17d,1,2022,14,1,住宅,22.53131306,113.94792549,False
4403050070060100145,113.92669403,22.51206412,后海村73号、76号,后海村73号、76号,f6d385689cda4e7bacb50fcf4fd0835a,2,2022,5,2,商业/办公,22.51206412,113.92669403,False
4403050070140400026,113.9318754,22.5122529,华明路1号,蔚蓝海岸二期25栋,f69b153acab8428ab9f5aae1f341b5df,2,2022,28,1,商业/办公,22.5122529,113.9318754,False
4403050070090100014,113.9233842,22.51468295,登良路48号 龙城花园10栋,龙城花园10栋,f2e6882764a2456ab481474c1ece7d46,2,2022,6,1,商业/办公,22.51468295,113.9233842,False
4403050070060100132,113.92683206,22.51305075,后海村128号,后海村128号,ef33a7c13b674eb1b7ce3928e1a01bfd,2,2022,4,1,商业/办公,22.51305075,113.92683206,False
44030500700810T0008,113.94036129,22.5447141,科苑路1号,科苑路1号,e1a964e1d8d645fbae80b3e3cb1e6f5f,9,2022,0,1,未知,22.5447141,113.94036129,False
4403050070050600004,113.9259817,22.52066686,文心二路38号,海印长城一期（海印长城幼儿园）,e04950171e8e4a599db67f5bdd4a2bf1,1,2022,3,1,住宅,22.52066686,113.9259817,False
4403050070140400001,113.92953752,22.51258042,华明路1号,蔚蓝海岸二期6、7栋,de24e717c8854e8d94dfd864bb2d7862,2,2022,21,1,商业/办公,22.51258042,113.92953752,False
4403050070150100100,113.93203836,22.53191305,南海大道3688号,"海滨小区15栋,16栋",dbd0a0e66b0d4e8abe435ffae756c6b1,2,2022,8,1,商业/办公,22.53191305,113.93203836,False
4403050070130100009,113.95102789,22.55524659,沙河西路2029号,新世界豪园二期凯旋北道,daae2be412004dda9b3ce5f08cb4bced,2,2022,1,1,商业/办公,22.55524659,113.95102789,False
4403050070050200007,113.92765654,22.52324114,海德三道202号,城市印象幼儿园,d187783d2b154c7592bfed75a4f32364,8,2022,3,1,教育/医疗,22.52324114,113.92765654,False
4403050070060100108,113.92614552,22.51153728,后海村28号,后海村28号,d09a710639464c3e86f0e6b16383733f,2,2022,4,1,商业/办公,22.51153728,113.92614552,False
4403050070060100080,113.92613459,22.51196095,后海村53号,后海村53号,cfce2a307280402c8955cf0cd7156eb2,2,2022,4,1,商业/办公,22.51196095,113.92613459,False
4403050070042300009,113.93538779,22.5294984,深圳市南山区高新南九道55号,微软科通大厦,cfc26649e1ca4e139ce687e79ff5ef35,7,2022,28,1,城中村,22.5294984,113.93538779,False
4403050070101200010,113.93006751,22.54547879,科技中一路1号,高新富悦公寓,cf5658f9b4994fbf9e7b66a0f49cc450,3,2022,19,1,工业,22.54547879,113.93006751,False
4403050070130100012,113.95066842,22.55373931,沙河西路2029号,新世界豪园二期里昂道,cebd56ad4502497082edda5a8253d093,2,2022,1,1,商业/办公,22.55373931,113.95066842,False
4403050070010300001,113.92824595,22.52810505,勤学路8号,锦隆花园锦云A.B.C.D阁,ce819d0ca5ab4e50bab2150b248230d7,2,2022,11,1,商业/办公,22.52810505,113.92824595,False
4403050070090100013,113.9229183,22.51467765,登良路48号 龙城花园17栋,龙城花园17栋,cbbf281cea504fe6aef6aa5b3db6ec7b,2,2022,7,1,商业/办公,22.51467765,113.9229183,False
4403050070080600027,113.94392308,22.5501261,文华路3号,科技园36区变电房,cb005651d6cb4bc0a6506d2dff924b62,8,2022,1,1,教育/医疗,22.5501261,113.94392308,False
44030500701202T0017,113.92147814,22.51259972,深圳市地铁9号线西延线南油站项目临建（工人宿舍8栋）,深圳市地铁9号线西延线南油站项目临建（工人宿舍8栋）,ca57b9a7c21b4daab9fe1093af7f023c,2,2022,2,1,商业/办公,22.51259972,113.92147814,False
4403050070041900007,113.93559171,22.53169992,科苑路,深圳大学南校区医学院,c80e2bfd63854be7bd65ab5e2e730c5d,7,2022,9,1,城中村,22.53169992,113.93559171,False
44030500701202T0006,113.92099484,22.51175525,深圳市地铁9号线西延线南油站项目临建（办公楼一栋）,深圳市地铁9号线西延线南油站项目临建（办公楼一栋）,c22b8c3fb2ec4bd7a5f5b3d1e6980a74,9,2022,2,1,未知,22.51175525,113.92099484,False
4403050070020400010,113.9271147,22.51540871,龙城路1号 后海花园7栋,后海花园7栋,c1f279409d584f349a90c28172335da3,3,2022,25,1,工业,22.51540871,113.9271147,False
4403050070090100017,113.92333999,22.51445754,登良路48号 龙城花园9栋,龙城花园9栋,c1ccc28b22ad48a997bc6682045247cb,2,2022,6,1,商业/办公,22.51445754,113.92333999,False
4403050070080300008,113.94701563,22.55205568,青梧路2号,科技园58区8栋,c1c9ce1593bf4a43aa6169345cfb4de0,2,2022,7,1,商业/办公,22.55205568,113.94701563,False
4403050070060100123,113.92599239,22.51107847,后海村9号,后海村9号,bd33ff3b744244258e89d594f9a65643,2,2022,14,1,商业/办公,22.51107847,113.92599239,False
4403050070090100012,113.92257576,22.51467202,登良路48号 龙城花园18栋,龙城花园18栋,bcc9e6d369204c62a913a92e6f4f95e4,2,2022,7,1,商业/办公,22.51467202,113.92257576,False
4403050070160500001,113.92671001,22.52954978,桂庙新村21、22、23、23-1号,桂庙新村21、22、23、23-1号,bc285ee19bc04659b3e3837bca3ef502,1,2022,4,1,住宅,22.52954978,113.92671001,False
4403050070060100110,113.92615666,22.51140605,后海村14号,后海村14号,ba2d7352ee344c498e1ce5f0581f7106,2,2022,10,1,商业/办公,22.51140605,113.92615666,False
4403050070050900002,113.9303068,22.52035465,文心五路33号,海岸城广场,b7c3eaf4387b46d7933a343a5bc33108,4,2022,7,1,混合,22.52035465,113.9303068,False
4403050070060100024,113.92652194,22.51335897,后海村143号,后海村143号,b77f1d8262b1438286024567421d20ff,2,2022,5,1,商业/办公,22.51335897,113.92652194,False
4403050070080500006,113.93907933,22.55232305,科苑路15号,科兴科学园B栋,b5bd6a52a5124a3a85de608624f5bc07,1,2022,20,1,住宅,22.55232305,113.93907933,False
4403050070150100046,113.93293142,22.53581358,南海大道3688号,雨鹃斋,b55645f4e46844709064b794947e1de4,2,2022,15,1,商业/办公,22.53581358,113.93293142,False
4403050070080300005,113.9463921,22.55157191,青梧路2号,科技园58区5栋,9ea430271376490f9b7182b5e74f6b47,2,2022,7,1,商业/办公,22.55157191,113.9463921,False
4403050070130100011,113.95060099,22.55411489,沙河西路2029号,新世界豪园二期罗马道,9e260cf6319e48638eaf95dd929097cb,2,2022,1,1,商业/办公,22.55411489,113.95060099,False
4403050070080300007,113.94692719,22.55267875,青梧路2号,科技园58区7栋,9c3e5d0c73914f93ad3e5525502c8e60,2,2022,7,1,商业/办公,22.55267875,113.94692719,False
4403050070150100031,113.93235373,22.53665433,南海大道3688号,海桐斋,99aaf237ecc5440497c4f72d86aa2ba2,2,2022,6,1,商业/办公,22.53665433,113.93235373,False
4403050070060100157,113.92660803,22.51146502,后海村19号,后海村19号,97955228ab0a4d709632ac8baf970a60,2,2022,7,1,商业/办公,22.51146502,113.92660803,False
4403050070150100070,113.92971905,22.53117036,南海大道3688号,云鹤楼,8ed64fdfa17045c493f6ec8501683171,2,2022,6,1,商业/办公,22.53117036,113.92971905,False
4403050070150100121,113.93287409,22.53486026,南山区南海大道3688号,深大其他综合办公室,8eb114a939af4600b5abe85826183aab,8,2022,2,1,教育/医疗,22.53486026,113.93287409,False
4403050070060100106,113.92599735,22.51136907,后海村31号,后海村31号,8ea8b68e8225445db72b5177eac47497,2,2022,6,1,商业/办公,22.51136907,113.92599735,False
4403050070080800001,113.93772337,22.54876418,高新中二道5号,生产力大楼,8e016346db19450d841fb89a9cb7d8b3,7,2022,6,1,城中村,22.54876418,113.93772337,False
4403050070030200273,113.950833,22.54735882,科发路12号,大冲城市花园7栋,89658e977ef74a179aa8605f08665ffb,2,2022,40,1,商业/办公,22.54735882,113.950833,False
44030500700415T0012,113.95123261,22.53767864,沙河西路与高新南四道交叉口西南角（地铁9号线9612标段深圳市市政工程总公司生活区）,沙河西路与高新南四道交叉口西南角（地铁9号线9612标段深圳市市政工程总公司生活区）,b46bd6d90590453d8d5e25aa51c3f1bf,2,2022,2,1,商业/办公,22.53767864,113.95123261,False
4403050070100700028,113.93041175,22.54630359,南山区科技中一路7号,华生园基因有限公司食堂,b19ae97e7d4e4ec5a4f98f4574606e0f,9,2022,1,1,未知,22.54630359,113.93041175,False
4403050070120500012,113.92300015,22.50820374,东滨路3044号,南油市政精品城,b1732222f9b749339f7c902cf7b3a395,4,2022,2,1,混合,22.50820374,113.92300015,False
4403050070050600006,113.92687124,22.52004303,海德一道200号,海印长城一期1-4栋,b0f1a04f80e7410b96e275a2273b32d7,2,2022,22,1,商业/办公,22.52004303,113.92687124,False
4403050070160300048,113.92983759,22.52991537,桂庙新村77号,桂庙新村77号,b011f2dde99644f986fdc2df5f502495,2,2022,7,1,商业/办公,22.52991537,113.92983759,False
4403050070060100122,113.92599752,22.51113795,后海村5号,后海村5号,af05a77ff76f4661bdfc1f98277d9fd6,2,2022,3,1,商业/办公,22.51113795,113.92599752,False
4403050070060100003,113.92612167,22.51378835,后海工业区12栋,后海工业区12栋,ad4d50191b5f4c25a569df07b4098fd8,5,2022,4,1,公共设施,22.51378835,113.92612167,False
4403050070060100021,113.92640411,22.5134565,后海村145号,后海村145号,ac5452095f634c2fb8d5788052f52e39,2,2022,8,1,商业/办公,22.5134565,113.92640411,False
4403050070101300009,113.93248682,22.54480823,科技中一路6号,帝景园二期E栋F栋,a8e1ff0f0aef445bafed7349f3f4758c,2,2022,8,1,商业/办公,22.54480823,113.93248682,False
44030500700419T0003,113.93362634,22.52853116,深圳大学南校区南方电网10KV变深圳大学电站,深圳大学南校区南方电网10KV变深圳大学电站,a71e41ee6b9c418b9a915b27f1aa05b4,9,2022,1,1,未知,22.52853116,113.93362634,False
4403050070060100111,113.92617564,22.51133095,后海村13号,后海村13号,a661ba8b3cc14c82ae7cc540a6e4c8c7,2,2022,7,1,商业/办公,22.51133095,113.92617564,False
4403050070150100005,113.92973347,22.53934602,南海大道3688号,建材试验中心,a5ff1913edd34dcb803162e865a0cc6f,1,2022,2,1,住宅,22.53934602,113.92973347,False
44030500700201T0002,113.92261876,22.51574853,南山区龙城路粤海大厦B座旁边,南山区龙城路粤海大厦B座旁边,a432b95b9d5a446aa9db1de9e812626c,7,2022,1,1,城中村,22.51574853,113.92261876,False
4403050070090200020,113.92468411,22.51411233,南商路62号,南油B区70栋,a3315dfc6f7840a09e250f79940d5f1a,1,2022,7,1,住宅,22.51411233,113.92468411,False
4403050070101200003,113.92934521,22.54439808,高新中一路9号,招商银行金融电子研发中心,a2c77039928446d38daf7f97bf9d29f5,7,2022,10,1,城中村,22.54439808,113.92934521,False
4403050070060100146,113.92663481,22.51200928,后海村59号,后海村59号,a26144e1d4264969ae1a1a7d4a0ae784,3,2022,8,1,工业,22.51200928,113.92663481,False
44030500700423T0010,113.93649891,22.52873616,高新南十道中建二局迅雷大厦项目生活区1栋,高新南十道中建二局迅雷大厦项目生活区1栋,971fd267d14d404d92e56936a49ee90b,2,2022,2,1,商业/办公,22.52873616,113.93649891,False
4403050070150100071,113.92941025,22.53131988,南海大道3688号,云鹏楼,971d8a18e0d74c919965a565f52ed154,2,2022,6,1,商业/办公,22.53131988,113.92941025,False
44030500700601T0008,113.92585709,22.51135944,后海村31号旁,后海村31号旁,9697cfa1ec6e4f80b169ece97acfc644,2,2022,1,1,商业/办公,22.51135944,113.92585709,False
4403050070160300015,113.92997146,22.53025221,桂庙新村81-1号,桂庙新村81-1号,94e282a7cb9b4c6b911fab7a27042e7d,2,2022,8,1,商业/办公,22.53025221,113.92997146,False
44030500701501T0008,113.92943099,22.53919127,南山区南海大道3688号深圳大学配电房,南山区南海大道3688号深圳大学配电房,94934e37873f44b5b2761d254b0069a3,8,2022,2,1,教育/医疗,22.53919127,113.92943099,False
44030500701204T0003,113.92105721,22.50878067,东滨路10号A区1栋旁配电房,东滨路10号A区1栋旁配电房,94811c5e98a0457ca96938fb597bc101,8,2022,1,1,教育/医疗,22.50878067,113.92105721,False
4403050070160600004,113.92898035,22.5289056,桂庙新村47号,桂庙新村47号,913d9664c9c849e7a0d74fda25ae9aea,2,2022,4,1,商业/办公,22.5289056,113.92898035,False
4403050070160500002,113.92719199,22.52956358,桂庙新村24号,桂庙新村24号,90c1513a0f1449768b3f616bfa7e3d46,2,2022,6,1,商业/办公,22.52956358,113.92719199,False
4403050070060100047,113.92654482,22.51271437,后海村112号,后海村112号,90a7065b874d4a4a8e4fccbda2ab71e4,2,2022,7,1,商业/办公,22.51271437,113.92654482,False
4403050070130300034,113.94750047,22.54767364,水厂路563号,深圳市水务集团大冲水厂宿舍,9063d884c9c84ef89bc9f13bc8e1cb11,2,2022,3,2,商业/办公,22.54767364,113.94750047,False
4403050070060100004,113.92611886,22.51350361,后海工业区11栋,后海工业区11栋,8faa2ddc1a8240b2ae93c2cd1cf2bc0e,1,2022,4,1,住宅,22.51350361,113.92611886,False
4403050070100700025,113.93012819,22.54609115,高新中四道30号,龙泰利科技大厦(海关大厦),81cfdad8d8ec421691bb863233226657,7,2022,6,1,城中村,22.54609115,113.93012819,False
44030500700810T0009,113.93978239,22.54452063,科兴路11号岗亭,科兴路11号岗亭,7f7cdf1b712a455cb2b132da3a89221a,8,2022,1,1,教育/医疗,22.54452063,113.93978239,False
4403050070101100010,113.93660103,22.54498285,麻雀岭工业区10栋（高新区中区M—10）,1号楼,7e875e501a26427d86d18aa7bed6318f,5,2022,3,1,公共设施,22.54498285,113.93660103,False
4403050070130100045,113.95106945,22.55450469,南山区沙河西路2029号,新世界豪园悦歆府,7d27ddd81b1646439511f168060065ff,2,2022,3,1,商业/办公,22.55450469,113.95106945,False
4403050070060100093,113.92609024,22.51172809,后海村48号,后海村48,7cd8c31726b849adaed9146e438a5736,2,2022,6,1,商业/办公,22.51172809,113.92609024,False
4403050070060200001,113.92567529,22.51066339,怡海花园,怡海花园1栋,7c6e6a2ab7ef49dda38c8c55d090a5fa,3,2022,8,2,工业,22.51066339,113.92567529,False
4403050070060100033,113.92645669,22.51303887,后海村124号,后海村124号,7c0fcb92db2a443ab2b568abaec39aaa,1,2022,5,1,住宅,22.51303887,113.92645669,False
4403050070041900003,113.93804615,22.53457398,粤兴一道18号,香港理工大学产学研大楼,7ab072505af34ff29c9c8fc66f629c28,7,2022,8,1,城中村,22.53457398,113.93804615,False
4403050070060100042,113.9265414,22.5128054,后海村114号,后海村114号,7946ed525667417abf3210c04a1f6144,2,2022,5,1,商业/办公,22.5128054,113.9265414,False
4403050070160300049,113.92982263,22.52981802,桂庙新村78号,桂庙新村78号,78cbddb2c6264e0ca27a958dbb06a6ac,3,2022,7,1,工业,22.52981802,113.92982263,False
4403050070060100112,113.92619143,22.51126371,后海村6号,后海村6号,7797a2fbff284ad7af2285ee24ca502d,2,2022,6,1,商业/办公,22.51126371,113.92619143,False
4403050070010300006,113.92757206,22.52726142,勤学路8号,锦隆花园管理处,76b7cd0508cb4d20a755d09381a60d10,7,2022,2,1,城中村,22.52726142,113.92757206,False
4403050070060100107,113.92599194,22.51125612,后海村11号,后海村11号,7692bda4603942db89ecc007e1f5cf6f,2,2022,6,1,商业/办公,22.51125612,113.92599194,False
4403050070060100109,113.92614598,22.51145693,后海村30号,后海村30号,75b54c56be444cb482bae43b6c7c472c,2,2022,2,1,商业/办公,22.51145693,113.92614598,False
44030500700808T0007,113.93853764,22.54763487,科智西路5号-1,25栋科智西路5号路旁仓库,74895b1e8fc14d26ab607eff86c27a0a,6,2022,1,1,其他,22.54763487,113.93853764,False
4403050070160500011,113.9270273,22.52879544,桂庙新村30号,桂庙新村30号,73b0aa3cda0b4a628967feb238edc3ac,3,2022,7,1,工业,22.52879544,113.9270273,False
44030500700810T0012,113.93741192,22.54540846,翠溪路,翠溪路,716e358c39684ff4a4cba72ca3063f8e,4,2022,1,1,混合,22.54540846,113.93741192,False
4403050070060200012,113.92628238,22.50964192,后海大道2061号,后海别墅A07,6f974642951d43349fa7ad045adffbd9,2,2022,3,1,商业/办公,22.50964192,113.92628238,False
4403050070100500005,113.93233588,22.5499014,高新中二道28号,药检大楼,6d9ed2acdca7438e867194fff66685b9,1,2022,6,1,住宅,22.5499014,113.93233588,False
4403050070080100037,113.94771308,22.55318711,青梧路2号,科苑学里3栋,6c0d978f6ad249e6abdb58f822701e12,2,2022,15,1,商业/办公,22.55318711,113.94771308,False
4403050070130100015,113.95085994,22.55267754,沙河西路2029号,新世界豪园二期嘎纳道D1型,6b169d37618d406795b65454d7d7c940,2,2022,1,1,商业/办公,22.55267754,113.95085994,False
4403050070080700003,113.94119973,22.54921846,科华路7号,五洲医院后面平房,57365e1b72d74aa683896a766df069cd,7,2022,1,1,城中村,22.54921846,113.94119973,False
4403050070041900017,113.93324238,22.53063979,白石路3883号深圳大学南校区,深圳大学南校区信息工程与电子科学院,55b77aea927a448eb5c511d15850979a,9,2022,10,1,未知,22.53063979,113.93324238,False
4403050070120200011,113.92257247,22.51109047,南山区华明路62号,南油小学,5481e189290449ac8e589213aa622734,7,2022,8,1,城中村,22.51109047,113.92257247,False
4403050070080700045,113.94319487,22.54755104,科技路2号,西浦材料股份有限公司配电房,52a3951441714788927dc6d908e84d55,9,2022,1,1,未知,22.54755104,113.94319487,False
4403050070150100004,113.92978823,22.54052049,南海大道3688号,深圳大学文科楼,5295ef2e01bf45fc872bf041ae2c1bf2,1,2022,7,1,住宅,22.54052049,113.92978823,False
4403050070090200007,113.9258564,22.51518178,龙城路47号南油B区42栋,南油B区42栋,51670899cabe45fdbd0ce0dc1f73f4b1,2,2022,7,1,商业/办公,22.51518178,113.9258564,False
4403050070150100103,113.93428261,22.5340301,南海大道3688号,南门运动场,4f85af84e8d24dc0aaf9d82955c7530d,1,2022,2,1,住宅,22.5340301,113.93428261,False
4403050070020100001,113.92267559,22.5171558,创业路11号,深大电话公司,4005010d2fe14b33b8b1b02584a68825,1,2022,6,1,住宅,22.5171558,113.92267559,False
4403050070130200001,113.95067725,22.55133745,沙河西路2025号,英伦名苑1栋,3f7b2de1b7604f38a0e952645bfbdfd6,2,2022,11,1,商业/办公,22.55133745,113.95067725,False
4403050070150100025,113.93056954,22.53642885,南海大道3688号,图书馆,3f1fe91bf9f34950bb91543854b4e17b,1,2022,7,1,住宅,22.53642885,113.93056954,False
4403050070060100131,113.92683256,22.5131558,后海村130号,后海村130号,68c6cb390cb549f9beb3590d3a893a69,2,2022,5,1,商业/办公,22.5131558,113.92683256,False
4403050070041900006,113.93584133,22.53317841,科苑路,深圳大学南校区基础实验楼,682d2d4f481c49fd90e7b5066402f11e,7,2022,10,1,城中村,22.53317841,113.93584133,False
4403050070041900005,113.93995745,22.53508601,粤兴二道12号,滨海通信机楼,651b0270668f4ee29b417e9c54a23f42,9,2022,13,1,未知,22.53508601,113.93995745,False
4403050070110200002,113.92894077,22.51497347,后海大道2248号育德佳园1-2栋育德佳园育德佳园1-2栋,育德佳园1-2栋,629150cd47f946689fdee9dc44ac2cf3,3,2022,8,1,工业,22.51497347,113.92894077,False
4403050070160300057,113.92986057,22.52928164,桂庙新村91号,桂庙新村91号,620e880dbef54d97aa5684e33dfdf878,2,2022,8,1,商业/办公,22.52928164,113.92986057,False
4403050070160300047,113.92945725,22.52940209,桂庙新村59号,桂庙新村59号,60e039b927244c0da2183af6ecdd54a0,3,2022,9,1,工业,22.52940209,113.92945725,False
4403050070101100012,113.93673096,22.54430877,深圳市华富洋供应链大厦,深圳市华富洋供应链大厦,60dd41df351048d6a9961ecf15147cd7,5,2022,6,1,公共设施,22.54430877,113.93673096,False
4403050070030600002,113.94962937,22.54416824,深南大道9670号,华润城华润置地大厦7栋A座,600caca9856640b1a417060bd53eccb3,4,2022,2,1,混合,22.54416824,113.94962937,False
44030500700601T0009,113.92654833,22.51089884,铁皮房、变电站,铁皮房、变电站,5fc5b7464f8f462cac0d484e4971d2bb,9,2022,1,1,未知,22.51089884,113.92654833,False
4403050070150100024,113.92988441,22.53571428,南海大道3688号,办公楼,5fc36b8049dc41c09c516d7d5536dd9b,7,2022,6,1,城中村,22.53571428,113.92988441,False
44030500700807T0021,113.94587117,22.54724289,科技园科技路旁苗圃1,科技园科技路旁苗圃1,5fa7020f64f0456d82ab72c24b591266,1,2022,1,1,住宅,22.54724289,113.94587117,False
44030500700801T0001,113.94548445,22.55460851,琼宇路旁,琼宇路旁,5fa3997101d24ba99ab7b8d204198813,2,2022,1,1,商业/办公,22.55460851,113.94548445,False
4403050070120200007,113.92276311,22.51198254,建南路2号2栋,南油A区25栋,5dd75c84684f4caabeed8cb87ff72e9e,2,2022,6,1,商业/办公,22.51198254,113.92276311,False
4403050070020400009,113.92653,22.51539249,龙城路3号后海花园6栋,后海花园6栋,5c66e35edc084a78a7d20d210c29f52e,3,2022,8,1,工业,22.51539249,113.92653,False
44030500700810T0011,113.94025515,22.54452197,科兴路10号旁花店,科兴路10号旁花店,5b6b192864f643819dfae4e42dc12ec9,4,2022,1,1,混合,22.54452197,113.94025515,False
4403050070060100015,113.92649946,22.51385017,后海村151号,后海村151号,59132138eece4dc6bae03c1df7486e4f,2,2022,5,1,商业/办公,22.51385017,113.92649946,False
4403050070090100018,113.92261575,22.51407441,登良路48号 龙城花园7栋,龙城花园7栋,4b695ce88bf444ec9c21a52570e222f9,2,2022,6,1,商业/办公,22.51407441,113.92261575,False
4403050070130200033,113.9509904,22.55212778,铜鼓路98号,华润城润府（二期）4栋,4adf9cad252042c2a59c52bc56d9a0a9,2,2022,43,1,商业/办公,22.55212778,113.9509904,False
4403050070030200276,113.95104258,22.54562786,科发路11号,南山金融大厦,4ac46bf74cc04078909ce21e6c986aae,7,2022,30,1,城中村,22.54562786,113.95104258,False
4403050070090100005,113.92351321,22.51535788,登良路48号 龙城花园13栋,龙城花园13栋,4a5850b0e59c49cf8911787642785c3d,2,2022,6,1,商业/办公,22.51535788,113.92351321,False
4403050070160600024,113.92941165,22.5284524,桂庙新村56-2号,桂庙新村56-2号,47f617b13f5f49d3a5a76b4160236809,2,2022,6,1,商业/办公,22.5284524,113.92941165,False
4403050070030400139,113.94576298,22.54390741,科技路2号,A栋海景阁、B栋润景阁、C栋朗景阁、D栋荔景阁,47a86c573b8246618becc3414100c9db,3,2022,15,1,工业,22.54390741,113.94576298,False
4403050070060200006,113.9260819,22.51067244,华明路17号,怡海花园管理处,454b322cf6e74646843934fc50a36cbb,7,2022,2,1,城中村,22.51067244,113.9260819,False
4403050070080700047,113.94329553,22.54742927,科慧路2号,西浦材料有限公司配电房,434cba7a06ac4a4cae74d841ee10919e,9,2022,1,1,未知,22.54742927,113.94329553,False
4403050070140200011,113.93232687,22.51428794,登良路8号,蔚蓝海岸三期幼儿园,424e5870c8f3437fb657b7c1fe048abe,8,2022,4,1,教育/医疗,22.51428794,113.93232687,False
44030500701403T0037,113.93742333,22.5134889,地铁13号线五工区项目部中建二局,地铁13号线五工区项目部中建二局,3265f42477a3474b8195d9d3fcbd1151,9,2022,2,1,未知,22.5134889,113.93742333,False
4403050070160600003,113.92897831,22.52898026,桂庙新村49号,桂庙新村49号,314aa90984444f37bdcebce0eac29f1a,3,2022,6,1,工业,22.52898026,113.92897831,False
4403050070030500006,113.94869565,22.54526449,铜鼓路39号,大冲商务中心（三期）4栋,2f2199a9997c4876802e97ff286fe48c,1,2022,45,1,住宅,22.54526449,113.94869565,False
4403050070090100002,113.92182696,22.51379701,南海大道2502号 雅仕荔景苑,雅仕荔景苑,2dff2122034645649f753989d8f01d37,3,2022,32,1,工业,22.51379701,113.92182696,False
4403050070042100015,113.9479091,22.5336892,南环路28号,深圳湾科技生态园8栋,2d24d9984e464c5e940598a117250276,3,2022,6,1,工业,22.5336892,113.9479091,False
4403050070130100033,113.95273889,22.55263035,南山区沙河西路2029路东门口,垃圾站,2cc7c45886304ee98f855074aff8b5ad,8,2022,1,1,教育/医疗,22.55263035,113.95273889,False
4403050070120100009,113.92565031,22.51351184,后海工业区10栋,后海工业区10栋,2b524d7790654540b796e6a9ad1f5ee3,5,2022,4,1,公共设施,22.51351184,113.92565031,False
44030500700808T0008,113.93868116,22.54778713,27栋科智西路3号路旁仓库,27栋科智西路3号路旁仓库,2b36afd638fd47cf8a75abc31e8dc392,6,2022,1,1,其他,22.54778713,113.93868116,False
4403050070090100003,113.92277407,22.51538833,登良路48号 龙城花园25栋,龙城花园25栋,2b1bf3370e514dcda0f70d116760ed24,2,2022,7,1,商业/办公,22.51538833,113.92277407,False
4403050070010200013,113.92662024,22.52716442,学海路1号,海文花园海扉阁A.B,2785800ea1b84f708c98b0bb56232b15,2,2022,12,1,商业/办公,22.52716442,113.92662024,False
4403050070060100063,113.926383,22.51241222,后海村83号,后海村83号,26f6fc00d9bd45f791f90efe4dd940c6,2,2022,4,1,商业/办公,22.51241222,113.926383,False
4403050070090100006,113.9226665,22.5151321,登良路48号 龙城花园22栋,龙城花园22栋,24ce542208984c8a8acc29ce46cd24cd,2,2022,7,1,商业/办公,22.5151321,113.9226665,False
4403050070060100091,113.9259612,22.51173678,后海村49号,后海村49号,249a9c3182a14d0bb0d3ebd533bfcc16,2,2022,8,1,商业/办公,22.51173678,113.9259612,False
44030500701011T0005,113.93460338,22.5454756,高新中四道（凯丽花园对面工业区楼梯底）工业区楼梯间,工业区楼梯间,237e45f00cd74f19b6ac319715e239ba,4,2022,1,1,混合,22.5454756,113.93460338,False
4403050070090200005,113.92530146,22.51514113,龙城路47号南油B区44栋,南油B区44栋,21e66e9e69b54f65ab84d173971fffb1,2,2022,7,1,商业/办公,22.51514113,113.92530146,False
4403050070120100002,113.92534239,22.51424625,兴南路78号,南油B区35栋,2181af49b0f94183b235af2abe0d0601,2,2022,7,1,商业/办公,22.51424625,113.92534239,False
4403050070080300017,113.94762251,22.55218578,青梧路3号,科苑学里6栋,1d330b13be3842aa8e4b6463a894ddf8,2,2022,12,1,商业/办公,22.55218578,113.94762251,False
4403050070060100011,113.92563032,22.51119798,后海工业区S2栋,后海工业区S2栋,1cec42c36b4142a7993d8aef372da91e,2,2022,7,1,商业/办公,22.51119798,113.92563032,False
4403050070120400004,113.92124732,22.51036709,建南路15-1,车队,074a45aa99c749bcaeb901d41c77c384,7,2022,2,1,城中村,22.51036709,113.92124732,False
4403050070080700048,113.9428549,22.5484032,科彗路1号,沛鸿电子厂配电房,0591c1b78215455a9ae423faede49c1d,9,2022,1,1,未知,22.5484032,113.9428549,False
4403050070080900002,113.94290174,22.5457107,科发路3号,长城电脑大厦工业厂房,0562af617e484525a6b9e97b89c404f9,5,2022,3,1,公共设施,22.5457107,113.94290174,False
4403050070160400002,113.93062665,22.53037773,桂庙新村86号,桂庙新村86号,03920cc4506e4fbf8f2653c1acaaafde,2,2022,8,1,商业/办公,22.53037773,113.93062665,False
4403050070010400001,113.93077745,22.52772597,学府路85号,粤海派出所,01f08efc593c4ce9bed12cdfa050ba66,7,2022,3,1,城中村,22.52772597,113.93077745,False
4403050070130200032,113.95181584,22.55214635,铜鼓路98号,华润城润府（二期）3栋,1b00dbaa54134b54a672275995a2453f,2,2022,43,1,商业/办公,22.55214635,113.95181584,False
4403050070050400003,113.93507304,22.52281312,海德四道2号,南山区海德学校（教师宿舍）,1752a0ae9658464b94b25b15712104e2,2,2022,5,1,商业/办公,22.52281312,113.93507304,False
4403050070100800008,113.93119301,22.54660385,高新中三道11号,高新西公交总站,1705ccb3363d48ceade765c334c22233,9,2022,3,1,未知,22.54660385,113.93119301,False
4403050070060100079,113.92615232,22.51201841,后海村64号,后海村64号,14e36af4997d49fa995e0cc13535c8ea,3,2022,9,1,工业,22.51201841,113.92615232,False
4403050070150100073,113.93003833,22.5314696,南海大道3688号,海月楼,14c3ee798b864d2c99426236764bc9c2,2,2022,6,1,商业/办公,22.5314696,113.93003833,False
4403050070051500006,113.93303206,22.51759365,创业路4号,观海台花园8栋,12451ba373a24ff7a4a901fc7f79ef16,2,2022,11,1,商业/办公,22.51759365,113.93303206,False
4403050070160500009,113.9272604,22.52903417,桂庙新村34号,桂庙新村34号,0ff90e97cfa64380a797573b65c40b8e,1,2022,3,1,住宅,22.52903417,113.9272604,False
4403050070040800003,113.94315437,22.54074043,高新南一道017号,万德莱大厦,0f842703892e4447a85d91b36ca02241,1,2022,6,1,住宅,22.54074043,113.94315437,False
4403050070130100005,113.94939558,22.55386829,沙河西路2029号,城市山谷花园椰林街,0f60fdb99eb0414f96ddc3d6f731a2a7,2,2022,1,1,商业/办公,22.55386829,113.94939558,False
4403050070090100019,113.92295772,22.51407931,登良路48号 龙城花园8栋,龙城花园8栋,0e6fada35b8f4852afe47b9fd267bd83,2,2022,6,1,商业/办公,22.51407931,113.92295772,False
4403050070042300015,113.93687868,22.53017799,高新南九道53号,航空航天大厦2号楼,0ca765e887944f01915b6bc8e5d149ca,1,2022,15,1,住宅,22.53017799,113.93687868,False
4403050070041600005,113.94250431,22.53790233,高新南五道9号,金证科技大楼,0c5066394a3d4e61a84a6a0fee579885,7,2022,10,1,城中村,22.53790233,113.94250431,False
4403050070070200022,113.92595564,22.50816889,兴南路52号,南海花园A02栋,096971e6ac544b4795e5389213ec4195,7,2022,0,1,城中村,22.50816889,113.92595564,False
4403050070050300010,113.93173645,22.52272692,南山区后海文心五路36号,滨海之窗,085f4f23d4ca4a4fb4dc6f0af4bef241,4,2022,2,1,混合,22.52272692,113.93173645,False
4403050070150100110,113.92963863,22.53068152,南海大道3688号,乔梧阁,ed84992c3e364d228c704730aef4d201,2,2022,21,1,商业/办公,22.53068152,113.92963863,False
4403050070160500008,113.92679132,22.52890007,桂庙新村29、31号,桂庙新村29、31号,ed5b6980d6314a0d90bd22eaf4fcf586,1,2022,4,1,住宅,22.52890007,113.92679132,False
44030500701205T0001,113.92272069,22.50970378,南商路,南商路,ed262f4b93024a759f23cfe8950ec846,4,2022,1,1,混合,22.50970378,113.92272069,False
4403050070041400008,113.94518462,22.53738186,科技南路022号,高新公寓商铺,ed076083b4144a90ac9dc1638770daee,4,2022,3,1,混合,22.53738186,113.94518462,False
4403050070140200010,113.93225938,22.51476284,登良路8号,蔚蓝海岸三期36栋,ec4789d343894aeaad3888ecd791308c,2,2022,12,1,商业/办公,22.51476284,113.93225938,False
4403050070160300031,113.92898085,22.52949957,桂庙新村66号,桂庙新村66号,ec005ceba2884dd28efbd2be6efe544f,2,2022,7,1,商业/办公,22.52949957,113.92898085,False
4403050070060100061,113.92629195,22.51220001,后海村100号,后海村100号,eb83d7a2c71941869bc8aec49f97a9e3,2,2022,2,1,商业/办公,22.51220001,113.92629195,False
4403050070050300008,113.93220415,22.52355177,南山区后海文心五路85号,滨海之窗8栋,eb5d60db31004fff98f303ffeea210b0,4,2022,19,1,混合,22.52355177,113.93220415,False
44030500700306T0004,113.94996144,22.54388751,中铁一局集团宿舍,中铁一局集团宿舍,eb1acd4ac128467c89e33e445957547d,1,2022,1,1,住宅,22.54388751,113.94996144,False
44030500700807T0021,113.94587117,22.54724289,科技园科技路旁苗圃1,科技园科技路旁苗圃1,eb05ac31aa71497dac96db4daf6a469e,1,2022,1,1,住宅,22.54724289,113.94587117,False
4403050070070200028,113.92626696,22.50883521,后海大道2061号,后海别墅B01,ea97611636c643b3871803602ad4a671,3,2022,3,1,工业,22.50883521,113.92626696,False
4403050070090200007,113.9258564,22.51518178,龙城路47号南油B区42栋,南油B区42栋,ea7880924bf34e65ab0d717605e46913,2,2022,7,1,商业/办公,22.51518178,113.9258564,False
4403050070150100140,113.93467356,22.53748217,南山区南海大道3688号,深大美术教室,ea5ec40ff5524a968b9dea33c6c9a09c,8,2022,1,1,教育/医疗,22.53748217,113.93467356,False
4403050070120500004,113.92225914,22.50914373,建南路5号,南油A区3栋,e9cca599ba0a4e42a7420ff0d5f36f1c,2,2022,6,1,商业/办公,22.50914373,113.92225914,False
4403050070100200004,113.93412562,22.55378093,高新中一道12号,原龙泰药业门卫室,e99bd229e7b548eb9eea2f0dedef4f71,8,2022,1,1,教育/医疗,22.55378093,113.93412562,False
4403050070080100019,113.94181653,22.55325759,琼宇路7号,桑达苑3栋,e98aa369244f4e128cadf5101870ec25,2,2022,7,1,商业/办公,22.55325759,113.94181653,False
44030500701203T0009,113.92344772,22.51103527,南乐雅苑门口临时商铺,南乐雅苑门口临时商铺,e9483c85bec64485a7bd25282e5af175,9,2022,1,1,未知,22.51103527,113.92344772,False
4403050070010200017,113.92679914,22.52641514,学海路1号,海文花园海云阁A.B,e943e64606b54f198642dc379e9194b5,2,2022,9,1,商业/办公,22.52641514,113.92679914,False
4403050070060100082,113.9262815,22.51201674,后海村61号,后海村61号,e8d0fb5ce1b54630ad51298ae18d1266,2,2022,5,1,商业/办公,22.51201674,113.9262815,False
4403050070041500014,113.94893526,22.53654472,高新南七道1号,粤美特大厦,e89df57e02c54cc7969f0a4420a7221c,1,2022,28,1,住宅,22.53654472,113.94893526,False
4403050070130200031,113.95281494,22.55208841,铜鼓路98号,华润城润府（四期）2栋,e76b853ffe064235aa588f23c45f2289,2,2022,63,1,商业/办公,22.55208841,113.95281494,False
4403050070041400005,113.94562147,22.53784918,科技南路024号,中国南方电网,e75baf5febb74ec2aa8339e0a2b88482,8,2022,1,1,教育/医疗,22.53784918,113.94562147,False
4403050070140400024,113.93020791,22.50937636,华明路1号,蔚蓝海岸一期11栋,e758d357c2e242028ab8c0aa6a313195,2,2022,19,1,商业/办公,22.50937636,113.93020791,False
4403050070150100010,113.93054316,22.53791196,南海大道3688号,深大10KV高压配电室,e74faae6b91d4f47ba6aed2a0360a062,1,2022,2,1,住宅,22.53791196,113.93054316,False
4403050070060100125,113.92621276,22.51096272,后海村2号,后海村2号,e6af908094d2442f8ac1ee5bf7ca4182,2,2022,5,1,商业/办公,22.51096272,113.92621276,False
44030500700203T0001,113.9247121,22.51594862,南山区南商路82号粤海市场综合楼后门,南山区南商路82号粤海市场综合楼后门,e5d5011ef8ec4ea4aa33d0fd51eee0f8,9,2022,1,1,未知,22.51594862,113.9247121,False
4403050070140300002,113.93592118,22.51127055,深圳市南山区中心路3033号,喜之郎大厦,e5bfb2f9f9bb4cfa987df8d2ea50e193,4,2022,36,1,混合,22.51127055,113.93592118,False
4403050070080400027,113.94505709,22.5507287,文华路4号B-6,科技园38区B6号别墅,e5443a250e86462792cf0adaad555559,2,2022,3,1,商业/办公,22.5507287,113.94505709,False
4403050070110300015,113.92887227,22.51131646,登良路7-40,招商名仕花园9栋,e52d50a60a204eabbcc7d8b7026bd2ad,2,2022,8,1,商业/办公,22.51131646,113.92887227,False
4403050070041400006,113.94663522,22.5378039,科技南路022号,高新公寓3栋,e515e0b9fc364f25b1525f29e3251442,2,2022,7,1,商业/办公,22.5378039,113.94663522,False
4403050070090200002,113.92521156,22.51539989,龙城路47号南油B区47栋,南油B区47栋,e50c763b50ad44afb303c84548e35c27,2,2022,7,1,商业/办公,22.51539989,113.92521156,False
4403050070060100150,113.9267949,22.51192567,后海村58号,后海村58号,e446b506335a40f19f86333997645bef,2,2022,5,1,商业/办公,22.51192567,113.9267949,False
4403050070160600021,113.92966666,22.52888521,桂庙新村54号,桂庙新村54号,e3bdd40bbb764cca9205062573f7c416,3,2022,6,1,工业,22.52888521,113.92966666,False
4403050070070100008,113.92521253,22.50975947,华明路1号,海映山庄3栋,daa3392c2c514c7c8682a357d1ab88a8,2,2022,6,1,商业/办公,22.50975947,113.92521253,False
4403050070120400017,113.92177494,22.50959956,建南路5号,南油A区13栋,da56a97c4bd3462c8d462a7def3d5d49,2,2022,6,1,商业/办公,22.50959956,113.92177494,False
4403050070060100074,113.92602978,22.51216647,后海村67号,后海村67号,d9bfe4c5e22f4529964fcedcc9b29e7d,3,2022,9,1,工业,22.51216647,113.92602978,False
4403050070051100003,113.93488768,22.52025464,南山区后海滨路3017号,南山中心区综合管理办公用房,d9b6cc00b9814d3ca844258d4ff8e35f,7,2022,2,1,城中村,22.52025464,113.93488768,False
44030500700803T0002,113.94780741,22.55270837,青梧路3号,科技园物业,d983bfa5f81e40c2ae37201478044097,8,2022,1,1,教育/医疗,22.55270837,113.94780741,False
4403050070120500008,113.92339187,22.51056009,华明路5号,南油慢性病防治院,d8ab4feb86c348a9b52bfb34bf24e370,8,2022,4,1,教育/医疗,22.51056009,113.92339187,False
4403050070160300005,113.92862098,22.52991298,桂庙新村100号,桂庙新村100号,d882c23b03754b52ad0634cba929e072,2,2022,7,1,商业/办公,22.52991298,113.92862098,False
4403050070110300014,113.92886658,22.51159463,登良路7-40,招商名仕花园10栋,d82ef033a1ca4a23b764f08a57fee1b0,2,2022,8,1,商业/办公,22.51159463,113.92886658,False
4403050070130300031,113.94740169,22.55025376,南山区大冲水厂路563号,大冲水厂基础设施,d7bbffda2af645ad9b9a13125115e0e9,8,2022,1,1,教育/医疗,22.55025376,113.94740169,False
4403050070010300018,113.92745221,22.52594375,书山路11号,学府小学垃圾房,d770c186bb8f4eacb07b117ae1a83efe,8,2022,1,1,教育/医疗,22.52594375,113.92745221,False
44030500701401T0001,113.93035873,22.51575712,浪琴屿花园垃圾收集点,浪琴屿花园垃圾收集点,d74a2a5f82a24f8898a2378c54677613,8,2022,1,1,教育/医疗,22.51575712,113.93035873,False
4403050070150100071,113.92941025,22.53131988,南海大道3688号,云鹏楼,d70e8596aea14b2d848fac77da2ebad0,2,2022,6,1,商业/办公,22.53131988,113.92941025,False
44030500700804T0004,113.94290843,22.5521524,科丰路华润建筑工人生活区D,科丰路华润建筑工人生活区D,d6c62d0539eb49dfae2962f96561bdab,1,2022,2,1,住宅,22.5521524,113.94290843,False
4403050070020300009,113.92527573,22.51578543,龙城路58号,粤海综合楼,d6bf2f96d8f64fdeae167cd26c69046d,3,2022,7,1,工业,22.51578543,113.92527573,False
4403050070120300002,113.92359292,22.51259339,南商路22号9栋,南油B区64栋,d6703ac2a1974629984c97fdb258f55c,2,2022,6,1,商业/办公,22.51259339,113.92359292,False
4403050070130100032,113.9488984,22.55317662,沙河西路2029号,城市山谷花园商业,d61e6d4063b34a38bf84bd3651f6d582,4,2022,3,1,混合,22.55317662,113.9488984,False
4403050070160400003,113.93073534,22.53029021,桂庙新村84-1号,桂庙新村84-1号,d6044ad181594c71a6738b051a5284c2,2,2022,2,1,商业/办公,22.53029021,113.93073534,False
4403050070140500004,113.93188312,22.50889433,教学楼之二楼牌4号,教学楼之一,d579ca54ddd04f8e9cab8b8a4413166d,8,2022,6,1,教育/医疗,22.50889433,113.93188312,False
4403050070010100016,113.93592699,22.52602591,海天二路12号,深圳市软件产业基地6栋,d53b3cefac9f4e0c85f0df580927dc45,1,2022,11,1,住宅,22.52602591,113.93592699,False
4403050070050200004,113.92761585,22.5242497,海德三道202号,城市印象1栋1A1B1C单元,d4d2bf3312f449fba5677114acca5d81,2,2022,23,1,商业/办公,22.5242497,113.92761585,False
4403050070051300008,113.92901678,22.51791918,南山区创业东路,广东省公安边防总队第六支队,d4a0953df80f416cb6d795288e05946f,3,2022,1,1,工业,22.51791918,113.92901678,False
4403050070060100018,113.9265343,22.51371757,后海村148号,后海村148号,d48c55bb0a8f4ddb870867e12eb6fa0f,2,2022,5,1,商业/办公,22.51371757,113.9265343,False
4403050070150100079,113.92582706,22.53055424,南海大道3688号,3号艺栈,d47bc4dbb86c476ca878dfb23b9a7902,1,2022,5,1,住宅,22.53055424,113.92582706,False
4403050070150100011,113.93194852,22.53817638,南海大道3688号,科技楼,d3db19de25684dcbb9d0b29c79e0006e,1,2022,15,1,住宅,22.53817638,113.93194852,False
4403050070100100004,113.93516614,22.55344483,高新中一道10号,孵化基地3号楼,d3daa3292323434aba2215b82c33e4e5,5,2022,5,1,公共设施,22.55344483,113.93516614,False
4403050070160600028,113.92938133,22.52881938,桂庙新村55-2号,桂庙新村55-2号,d359a29bb3764974a627e0217e8a7dd6,2,2022,1,1,商业/办公,22.52881938,113.92938133,False
4403050070051000003,113.93440184,22.52091911,南山区后海滨路海德三道,凯宾斯基酒店,d3449c25c6f5496e8d76efc7792eacaa,3,2022,27,1,工业,22.52091911,113.93440184,False
4403050070140400018,113.92946965,22.51032017,华明路1号,蔚蓝海岸一期5栋,d324b1fa69c447f7b9a65d517c5d6059,2,2022,11,1,商业/办公,22.51032017,113.92946965,False
4403050070060100144,113.92661766,22.51206732,后海村73号后小店,后海村73号后小店,d31b6c5b348740f5a3ac124332f4cfd4,4,2022,1,1,混合,22.51206732,113.92661766,False
4403050070051500006,113.93303206,22.51759365,创业路4号,观海台花园8栋,d2d83f1217584c2083072ce9d0441312,2,2022,11,1,商业/办公,22.51759365,113.93303206,False
4403050070042300013,113.93888421,22.53184706,粤兴三道9号华中科技大学深圳产学研基地大楼,华中科技大学深圳产学研基地大楼,d297fb9a9b3b42aa9826925434232c93,1,2022,14,1,住宅,22.53184706,113.93888421,False
4403050070060200008,113.92605603,22.51030403,华明路17号,怡海花园9栋,d27f3e54742a45bbbebc4e1f59a2f541,2,2022,7,1,商业/办公,22.51030403,113.92605603,False
4403050070060200007,113.92604054,22.51053174,华明路17号,怡海花园10栋,ffd3a3c21cc94fa396ea0a2e85f9872e,2,2022,7,1,商业/办公,22.51053174,113.92604054,False
4403050070130200005,113.95078124,22.55073676,沙河西路2023,英伦春天12栋,ff038d32eff64fbb9273b0c798365443,2,2022,14,1,商业/办公,22.55073676,113.95078124,False
4403050070150100020,113.92696325,22.53149434,南海大道3688号,花圃办公室,fef0372c60e04fd6a0dca22bb49560a1,7,2022,2,1,城中村,22.53149434,113.92696325,False
4403050070160300022,113.92846428,22.52907812,桂庙新村70号,桂庙新村70号,fecf09b88861430889270bd3ab269cca,2,2022,4,1,商业/办公,22.52907812,113.92846428,False
4403050070160300007,113.92880745,22.52991589,桂庙新村102号,桂庙新村102号,fd79446bbdf14455982d7242e48328e4,2,2022,9,1,商业/办公,22.52991589,113.92880745,False
4403050070120300007,113.92371581,22.51158958,南商路22号1栋、3栋,B区58栋、56栋,fcef0bc47a24477d8fbc394fb98bd3da,2,2022,7,1,商业/办公,22.51158958,113.92371581,False
4403050070041900013,113.93435744,22.53013817,白石路3883号深圳大学南校区,深圳大学医学院,fc4504e4c70b43db89a534acbf2c91af,9,2022,7,1,未知,22.53013817,113.93435744,False
44030500701604T0001,113.93091891,22.53018904,桂庙新村牌坊旁铁皮房,桂庙新村牌坊旁铁皮房,fc3d168afa09405c984a0438c1b75879,3,2022,2,1,工业,22.53018904,113.93091891,False
4403050070150100028,113.92897009,22.53511446,南海大道3688号,实验楼,fba37603293d40dda190e46b458e2e0a,1,2022,4,1,住宅,22.53511446,113.92897009,False
4403050070120100022,113.92526918,22.51195379,兴南路54号10栋,南油B区20栋,fb153f1cda1f4708b23e7d358508a854,2,2022,7,1,商业/办公,22.51195379,113.92526918,False
4403050070060100130,113.92685591,22.51326552,后海村134号,后海村134,fb0361f0d973490a81f2e1d2bf4a90a9,2,2022,8,1,商业/办公,22.51326552,113.92685591,False
4403050070120400018,113.92174441,22.5093448,建南路5号,南油A区12栋,faa351b5b5fe419dbf139903d18ebea6,2,2022,6,1,商业/办公,22.5093448,113.92174441,False
4403050070050100003,113.92551343,22.52434614,文化商业中心区文心公园,文心公园公共厕所,faa1e203a50849dc8b228e9df13f97b8,8,2022,1,1,教育/医疗,22.52434614,113.92551343,False
4403050070090100022,113.92304149,22.51367194,登良路48号 龙城花园4栋,龙城花园4栋,fa89fa258691434eb723951a04841083,2,2022,6,1,商业/办公,22.51367194,113.92304149,False
4403050070101300013,113.93293433,22.54513099,高新中四道9号,麒麟警察花园1栋,fa1f9f4e60fa4a328532b6a20a2574fd,2,2022,7,1,商业/办公,22.54513099,113.93293433,False
4403050070010100001,113.93925112,22.52933089,科苑南路3093号,海阔天空E栋,f9e197c35d5a47a1858a5afaf4fb4092,2,2022,32,1,商业/办公,22.52933089,113.93925112,False
4403050070120100026,113.92454997,22.51092052,兴南路54号2栋,南油B区12栋,f942d22a063f4460b61f4aaa5b18f78d,1,2022,6,1,住宅,22.51092052,113.92454997,False
4403050070042800009,113.9476751,22.52836911,南山区高新南环路18号,阳光带海滨城1#门岗,f8587c2111f745e8bb34e428961fecf4,9,2022,1,1,未知,22.52836911,113.9476751,False
4403050070160300037,113.92882968,22.52935177,桂庙新村67号,桂庙新村67号,f71480da9b6f4942b2173777445985d6,2,2022,7,1,商业/办公,22.52935177,113.92882968,False
4403050070150100080,113.92583773,22.53016508,南海大道3688号,丹枫轩,f6d0588bfcb4412394ab5fb304cff470,2,2022,5,1,商业/办公,22.53016508,113.92583773,False
4403050070140200002,113.93182525,22.51552895,登良路8号,蔚蓝海岸三期37栋,f6c279bfa84444daa81add22687fe3b4,2,2022,31,1,商业/办公,22.51552895,113.93182525,False
44030500701002T0001,113.93403522,22.55282033,高新中一道12号,高新中一道12号,f6112a67d8b94db0ae0392cef2e2935a,9,2022,2,1,未知,22.55282033,113.93403522,False
4403050070070200020,113.9256701,22.50816255,兴南路52号,南海花园A05栋,f5b3f0c426584091a98b62ddd0fae1d6,2,2022,3,1,商业/办公,22.50816255,113.9256701,False
4403050070051100004,113.93473993,22.51970123,南山区地铁2号线E出口,地铁2号线E出口,f5a8d4a8331c4339ad3699cc092971f7,8,2022,1,1,教育/医疗,22.51970123,113.93473993,False
4403050070160600002,113.92882515,22.5288938,桂庙新村43-1号,桂庙新村43-1号,f59ccdbd1a1c4e6893494ae9340ce1d0,2,2022,7,1,商业/办公,22.5288938,113.92882515,False
4403050070120400004,113.92124732,22.51036709,建南路15-1,车队,f4a48014c99b477aaa60831b82ed33f6,7,2022,2,1,城中村,22.51036709,113.92124732,False
4403050070060100173,113.92653714,22.51250139,后海村86号,后海村86号,f433f3fa0b6e488093fef5a8517845db,2,2022,1,1,商业/办公,22.51250139,113.92653714,False
4403050070130100030,113.95210913,22.55325365,沙河西路2029-18,新世界豪园会所30号,f40cbcd523e84ec6824b63872202a039,8,2022,1,1,教育/医疗,22.55325365,113.95210913,False
4403050070150100099,113.93183133,22.53166378,南海大道3688号,"海滨小区13栋,14栋",f40430d9b7f740608c878ede0681c5d8,2,2022,7,1,商业/办公,22.53166378,113.93183133,False
4403050070060100137,113.92686529,22.5125723,后海村89号,后海村89号,f398cb1c672e4a349e023d12a93be819,2,2022,6,1,商业/办公,22.5125723,113.92686529,False
4403050070060100048,113.92664049,22.51269151,后海村111号,后海村111号,f39889afc4304caf9570a2a51bf8e7ea,2,2022,7,1,商业/办公,22.51269151,113.92664049,False
4403050070080600028,113.94385968,22.5498815,文华路3号,科技园36区9栋（房地产权地址为科技园36区12栋）,f35b2ed16bea41309008a6afd70ba11f,2,2022,7,1,商业/办公,22.5498815,113.94385968,False
4403050070060100017,113.9264193,22.5137319,后海村149号,后海村149号,f306ef2b144842de95e7ef6f529359f8,2,2022,4,1,商业/办公,22.5137319,113.9264193,False
4403050070060100062,113.92637452,22.51250098,后海村85号,后海村85号,f29252f11c7d4a29b453391910f1e29c,2,2022,6,1,商业/办公,22.51250098,113.92637452,False
4403050070060100092,113.92596596,22.51161517,后海村33号,后海村33号,f1b485bacaaf4b329b564cb5706f740b,2,2022,8,1,商业/办公,22.51161517,113.92596596,False
4403050070080300001,113.94618097,22.55263458,青梧路2号,科技园58区1栋,f0b767d021b74de19fb636e284c790a4,2,2022,7,1,商业/办公,22.55263458,113.94618097,False
4403050070140400014,113.93099298,22.51116889,华明路1号,蔚蓝海岸二期8栋、9栋,f044f76ed7784a6cb354c126f43b006f,2,2022,19,1,商业/办公,22.51116889,113.93099298,False
4403050070150100093,113.93080185,22.53115789,南海大道3688号,"海滨小区4栋,5栋",f002c847115b4c74bbcb047a4bfefc99,2,2022,7,1,商业/办公,22.53115789,113.93080185,False
4403050070110400005,113.92802023,22.50892492,后海大道2002号,文德福花园2栋,ef6ac43429154ec18a85c945606ae0b3,2,2022,15,1,商业/办公,22.50892492,113.92802023,False
4403050070060100098,113.92624541,22.51170661,后海村40号,后海村40号,ef54c4c124044f90a8f1bb22fb9e88d9,2,2022,3,1,商业/办公,22.51170661,113.92624541,False
4403050070160200042,113.93584919,22.53655863,科技南一路33号,阳光粤海花园一期2栋,ef46be34b21e4f71942f498f54cb82e0,3,2022,48,1,工业,22.53655863,113.93584919,False
4403050070120400001,113.92077453,22.51083487,南海大道2122号,南油海晖大厦珍宝阁.银波阁.金山阁,ee5c8f5d4f404f028a8290ab60b1466a,1,2022,28,1,住宅,22.51083487,113.92077453,False
44030500700424T0005,113.94603857,22.53229052,金地中心项目中建三局生活区1栋,金地中心项目中建三局生活区1栋,ee2a6231f82f4fa788fa75004569cf73,2,2022,2,1,商业/办公,22.53229052,113.94603857,False
44030500701202T0014,113.92144648,22.5125263,深圳市地铁9号线西延线南油站项目临建（工人宿舍七栋）,深圳市地铁9号线西延线南油站项目临建（工人宿舍七栋）,edf7aa41155b4efd8137e4f86fd04634,2,2022,2,1,商业/办公,22.5125263,113.92144648,False
4403050070140400029,113.93190885,22.51055554,华明路1号,蔚蓝海岸二期21栋,ede1dbfe1745487b8685002bc9adcb51,2,2022,30,1,商业/办公,22.51055554,113.93190885,False
4403050070050700001,113.92918454,22.52154637,海德三道199号,天利中央广场,e39cd47176ba4610b2de96728a3e3b8d,4,2022,33,1,混合,22.52154637,113.92918454,False
4403050070080200010,113.9380357,22.55385965,南山区高新中一道,长园新材料港9栋,e31329b7798541e0b6d9251523144e5a,1,2022,13,1,住宅,22.55385965,113.9380357,False
4403050070051100001,113.93274193,22.52005125,文心六路4号,保利文化广场,e306d57c204f41c3addda84329fa9037,3,2022,6,1,工业,22.52005125,113.93274193,False
4403050070110400008,113.92811792,22.5083814,后海大道2002号,文德福花园1栋,e3040ed1d26b4aa69be9c3ecd4179fc9,3,2022,12,1,工业,22.5083814,113.92811792,False
4403050070081000014,113.93957348,22.54542645,科兴路6号,科技园1栋（房地产权证地址为科技园工业园13栋）,e300e0c3b0914126adff737d0c33c906,2,2022,7,1,商业/办公,22.54542645,113.93957348,False
4403050070060100161,113.92665237,22.51117126,后海村17号A,后海村17号A,e2e38bd46d3142c5b398c56a1377f508,3,2022,8,1,工业,22.51117126,113.92665237,False
4403050070060100119,113.92641738,22.51151944,后海村21号,后海村21号,e2854b49967843619106a56fab9ec4a0,2,2022,2,1,商业/办公,22.51151944,113.92641738,False
4403050070150100129,113.92807094,22.53528371,南山区南海大道3688号,氦、氮、氧气房,e240c0c773f54e8599a51efbb6c32d25,8,2022,1,1,教育/医疗,22.53528371,113.92807094,False
4403050070160400004,113.93047993,22.53022564,桂庙新村82-2号,桂庙新村82-2号,e223a362d12f450aa0424856c03e83ee,2,2022,8,1,商业/办公,22.53022564,113.93047993,False
4403050070050600001,113.92712738,22.52255794,海德二道201,海印长城二期13-15栋,e1ce9e310dbc42b0a0fc98b9e0310f45,2,2022,22,1,商业/办公,22.52255794,113.92712738,False
4403050070060100162,113.92652881,22.51106675,后海村16-1号,后海村16-1号,e0d927439c4546a4b6847178689bb0ed,2,2022,7,1,商业/办公,22.51106675,113.92652881,False
4403050070160300065,113.92800365,22.52946883,桂庙新村33-2号,桂庙新村33-2号,e08a58d1fb12413e9643499e173225a5,4,2022,1,1,混合,22.52946883,113.92800365,False
4403050070050600005,113.92720545,22.52051183,后海大道2551号,青少年活动中心,e0072b2f9c7949688bd73dd55409567f,1,2022,3,1,住宅,22.52051183,113.92720545,False
4403050070080600010,113.94295776,22.55071061,文华路5号,科技园34区3栋,df6aed89a5e245dfb2539e9fa50bcbc7,2,2022,7,1,商业/办公,22.55071061,113.94295776,False
4403050070100700020,113.93024433,22.54739118,南海大道4040号,豪方花园8栋,df477a2ebfc343b3b82958c40bbe86d7,3,2022,7,1,工业,22.54739118,113.93024433,False
4403050070010400010,113.93058421,22.52800748,学府路85号,粤海派出所保安亭,df2f7935fc5748f5a1f484b42acd3f09,9,2022,1,1,未知,22.52800748,113.93058421,False
4403050070120400012,113.92189959,22.5105596,建南路17号,南油A区17栋,df127219b8e447d5b48ffa993a13b6c6,1,2022,9,1,住宅,22.5105596,113.92189959,False
4403050070041500006,113.94763882,22.53889422,高新南六道16号,泰邦科技大厦,df080cd37f1c49a2b320d29dc258a1fc,7,2022,27,1,城中村,22.53889422,113.94763882,False
4403050070060200004,113.92564658,22.51000746,华明路17号,怡海花园4栋,de828a40459c487f90dd2468567d6e0d,2,2022,7,1,商业/办公,22.51000746,113.92564658,False
4403050070110200007,113.92925429,22.51400765,后海大道2248号,育德佳园7栋,de577b59c1c64173b6916db73ded7fb0,2,2022,17,1,商业/办公,22.51400765,113.92925429,False
4403050070110200008,113.92918774,22.51357509,后海大道2248号,育德佳园5栋,ddce7e010fb6481dafdce8b50f1714e3,2,2022,7,1,商业/办公,22.51357509,113.92918774,False
4403050070110100014,113.92986142,22.51535022,粤琴一路22号,天海花园3栋,dd87c80bd9db4b3ca50611d24389e0c4,2,2022,8,1,商业/办公,22.51535022,113.92986142,False
4403050070060200010,113.92602991,22.50981783,华明路17号,怡海花园7栋,dd627bb6771046cabb3c28d3f2f8ec84,2,2022,7,1,商业/办公,22.50981783,113.92602991,False
4403050070060100068,113.92651673,22.5124339,后海村84号,后海村84号,dd533bb141874a008392ee0ebf276f87,2,2022,3,1,商业/办公,22.5124339,113.92651673,False
4403050070120400011,113.92162347,22.51051471,建南路21号,南油A区22栋,dd4c1765a74f4a2b811458fc0baee0bf,1,2022,9,1,住宅,22.51051471,113.92162347,False
4403050070101000004,113.93390803,22.54605623,高新中四道6号,凯丽花园10栋,dcfb0329e4914fc99567e580d24b4462,2,2022,8,1,商业/办公,22.54605623,113.93390803,False
4403050070010200005,113.9271609,22.52815285,学府路99号,学林雅院1栋,dc72c21324f74ed1b9c00fa6d24fc3c4,2,2022,12,1,商业/办公,22.52815285,113.9271609,False
4403050070160300026,113.92881134,22.52944055,桂庙新村68-2号,桂庙新村68-2号,dc313fba6d954e07a32b5d7b7dbde713,2,2022,8,1,商业/办公,22.52944055,113.92881134,False
4403050070160500007,113.927216,22.52922481,桂庙新村32号,桂庙新村32号,db626e0af68f43e8a4e3daf996cfc040,1,2022,4,1,住宅,22.52922481,113.927216,False
4403050070160600016,113.92949136,22.52895692,桂庙新村52-2号,桂庙新村52-2号,db61af8e77744b4b81ab3d09e0367d51,3,2022,7,1,工业,22.52895692,113.92949136,False
4403050070070100007,113.92472729,22.50975806,华明路1号,海映山庄4栋,d1f4393515d149ecb5d8af8b4a5b01ec,2,2022,6,1,商业/办公,22.50975806,113.92472729,False
4403050070140200012,113.93190391,22.51420439,登良路8号,蔚蓝海岸三期33栋,d1aed35dc6d145888c62159bd5b12260,2,2022,18,1,商业/办公,22.51420439,113.93190391,False
4403050070010200016,113.92640519,22.52654627,学海路1号,海文花园海碧阁A.B,d13f015f5e9242028b6ccb095978d991,2,2022,10,1,商业/办公,22.52654627,113.92640519,False
4403050070120400008,113.92154608,22.51097898,建南路29号,南油A区19栋,cfee1bc9b1a64967aa8187fc652dca5d,1,2022,9,1,住宅,22.51097898,113.92154608,False
4403050070160600014,113.92911757,22.52856683,桂庙新村43-3号,桂庙新村43-3号,cfa0bbf36e8e4f3d845f5eca0098c12e,2,2022,7,1,商业/办公,22.52856683,113.92911757,False
4403050070060100116,113.92630603,22.51143881,后海村15号,后海村15号,ced76b2d3403405e916b8c9f1c8dfe97,2,2022,4,1,商业/办公,22.51143881,113.92630603,False
4403050070120500005,113.92218906,22.50886816,建南路5号,南油A区2栋,ce1d29dfe8a04d059027063f9dc57814,2,2022,6,1,商业/办公,22.50886816,113.92218906,False
4403050070060100128,113.92676981,22.51352639,后海村152号,后海村152号,cce83b2704f84128bd9792cea80d2692,2,2022,7,1,商业/办公,22.51352639,113.92676981,False
4403050070020300006,113.92553202,22.51650518,南商路112号,碧海天家园C栋,cc92f51ab57f4bcb8f339a7517a8fa8a,2,2022,9,1,商业/办公,22.51650518,113.92553202,False
4403050070130100017,113.95170262,22.55493724,沙河西路2029号,新世界豪园凯琴府5号,cbf436eb6861407ea15ee1121778f202,2,2022,2,1,商业/办公,22.55493724,113.95170262,False
4403050070160300032,113.92908852,22.52953549,桂庙新村63号,桂庙新村63号,cbca7936778d46009ee7828bd5d76dd6,2,2022,7,1,商业/办公,22.52953549,113.92908852,False
44030500701604T0003,113.93029178,22.52940614,桂庙新村108号,桂庙新村108号,cb77be43e4874f96827f5e9d784ead5c,8,2022,1,1,教育/医疗,22.52940614,113.93029178,False
4403050070120500015,113.92255287,22.50882378,南商路,南门一坊东侧,cb67bd2481a645ebbcd3366ec419d52d,4,2022,1,1,混合,22.50882378,113.92255287,False
4403050070020100008,113.9235418,22.5173031,创业路9号,金海岸大厦,cb4d5411949549da8b455eaf67a48673,3,2022,30,1,工业,22.5173031,113.9235418,False
4403050070090100024,113.92296887,22.51329224,登良路48号 龙城花园2栋,龙城花园2栋,cb3204e89cca477ea6841ff701c58ed5,2,2022,6,1,商业/办公,22.51329224,113.92296887,False
4403050070160300003,113.92828893,22.52975195,桂庙新村103号,桂庙新村103号,cb27fb736a514399997ccf0b4c5dc7f5,2,2022,7,1,商业/办公,22.52975195,113.92828893,False
4403050070060200011,113.92589809,22.50966117,华明路1号,怡海花园6栋,cab109c98a9e473c90b8a5f688bfdc78,2,2022,7,1,商业/办公,22.50966117,113.92589809,False
44030500701202T0012,113.92139606,22.51237045,深圳市地铁9号线西延线南油站项目临建（工人宿舍五栋）,深圳市地铁9号线西延线南油站项目临建（工人宿舍五栋）,ca98c5edfffc497e9183aa57073db024,2,2022,2,1,商业/办公,22.51237045,113.92139606,False
4403050070060100151,113.92655498,22.51174332,后海村37号,后海村37号,ca9215f6d6b74092b174a3b3ddc425b2,1,2022,6,1,住宅,22.51174332,113.92655498,False
44030500700807T0012,113.94621288,22.54778214,科技路旁30区9栋后收购站,科技路旁30区9栋后收购站,ca8e5598b3d441d581e2b7b1c5852f6b,4,2022,1,1,混合,22.54778214,113.94621288,False
4403050070060200005,113.92555543,22.5097669,华明路17号,怡海花园5栋,ca5a835ccd3543678987fd8719c0a658,2,2022,7,1,商业/办公,22.5097669,113.92555543,False
4403050070042300016,113.93692967,22.5307629,高新南九道45号,西北工业大学三航科技大厦,ca455a217d6f476c9bf8b25735970d4e,1,2022,28,1,住宅,22.5307629,113.93692967,False
4403050070100400012,113.93073883,22.55233851,高新中一道19号,赛百诺饭堂,ca3e388190564ee7a87bac77c682e122,4,2022,1,1,混合,22.55233851,113.93073883,False
4403050070060100016,113.92649258,22.51379223,后海村150号,后海村150号,c9ec6cc017f446c585bb93e54909fca9,2,2022,5,1,商业/办公,22.51379223,113.92649258,False
4403050070160300061,113.92796384,22.52936541,桂庙新村33-1号,桂庙新村33-1号,c945812160ef423fae8ce6aae6d5777a,4,2022,1,1,混合,22.52936541,113.92796384,False
4403050070150100063,113.92843286,22.53142424,南海大道3688号,结构楼,c922c9c759bd4d0fbd623039a998b2bb,2,2022,6,1,商业/办公,22.53142424,113.92843286,False
4403050070090100023,113.92337625,22.51367012,登良路48号 龙城花园3栋,龙城花园3栋,c90707dccb67469294a8c5fae0f77904,2,2022,6,1,商业/办公,22.51367012,113.92337625,False
4403050070160200041,113.93605599,22.53594602,科技南一路33号,阳光粤海花园一期1栋幼儿园,c8bb3a9ddf7e464b88df0a4a1c68ecd6,1,2022,2,1,住宅,22.53594602,113.93605599,False
4403050070140200013,113.93182784,22.51338122,登良路8号,蔚蓝海岸三期30栋,c7dda9b4c6944c6385f21d25104cbc0f,2,2022,19,1,商业/办公,22.51338122,113.93182784,False
4403050070110300012,113.92899451,22.51215368,登良路7-40,招商名仕花园12栋,c74b01e08a054cfb8bd93b80a9e47a09,2,2022,8,1,商业/办公,22.51215368,113.92899451,False
44030500701403T0037,113.93742333,22.5134889,地铁13号线五工区项目部中建二局,地铁13号线五工区项目部中建二局,c6ba45f0623b4aa09747f2056874484a,9,2022,2,1,未知,22.5134889,113.93742333,False
4403050070070100002,113.92515476,22.51060445,兴南路12号,海映山庄9栋,c68036241f8548a3ad91cb5b8a7eb908,2,2022,6,1,商业/办公,22.51060445,113.92515476,False
44030500701202T0017,113.92147814,22.51259972,深圳市地铁9号线西延线南油站项目临建（工人宿舍8栋）,深圳市地铁9号线西延线南油站项目临建（工人宿舍8栋）,c6725119e368458da36caab586bd7caf,2,2022,2,1,商业/办公,22.51259972,113.92147814,False
4403050070051300012,113.9307717,22.51754102,南山区创业路12号,污水泵站配电室,c5d9bd16e39046e7873fbe353c709b1b,8,2022,1,1,教育/医疗,22.51754102,113.9307717,False
4403050070030600009,113.95129805,22.54521034,科润路18号,华润城华润置地大厦6栋,c5a921488a3940cabe09b47e381c31ec,4,2022,3,1,混合,22.54521034,113.95129805,False
4403050070080400003,113.94186398,22.5523514,科伟路8号,科技园48区3栋,c50a215638354f849140d65b5bf9c5db,2,2022,7,1,商业/办公,22.5523514,113.94186398,False
4403050070070100001,113.92458359,22.51063776,华明路1号,海映山庄10栋,c4f14955a833426bb5a010e060995047,4,2022,7,1,混合,22.51063776,113.92458359,False
4403050070010100014,113.93528093,22.52751571,高新南十道81、83、85号,深圳市软件产业基地1栋,c4bad508d444436ebd1dbedbdc3a6546,1,2022,26,1,住宅,22.52751571,113.93528093,False
4403050070060100055,113.92608273,22.51232274,后海村101号,后海村101号,c4911abf689c4c69b28ac42c64061ca7,2,2022,5,1,商业/办公,22.51232274,113.92608273,False
4403050070060100108,113.92614552,22.51153728,后海村28号,后海村28号,c3f3d983d9904b7bbb29884a5cc82537,2,2022,4,1,商业/办公,22.51153728,113.92614552,False
4403050070041900014,113.93197559,22.52905675,白石路3883号深圳大学南校区,深圳大学计算软件与电子科学学院,c3dcea2a16f9406485c83dda045b10f6,9,2022,11,1,未知,22.52905675,113.93197559,False
4403050070160600023,113.92949996,22.52860178,桂庙新村56-1号,桂庙新村56-1号,c3bd8db508a143c38110f55ff42f44aa,2,2022,7,1,商业/办公,22.52860178,113.92949996,False
4403050070060100152,113.92673825,22.51176001,后海村38号,后海村38号,c3b14e9d79c94a2b9f775e5bd8ca67e6,1,2022,7,1,住宅,22.51176001,113.92673825,False
4403050070160600024,113.92941165,22.5284524,桂庙新村56-2号,桂庙新村56-2号,c314f377900248c0a367e3752cf0721c,2,2022,6,1,商业/办公,22.5284524,113.92941165,False
4403050070070100003,113.92461591,22.51038296,华明路1号,海映山庄8栋,c2f4d1aecd60449ca7ea034391b99fb3,2,2022,6,1,商业/办公,22.51038296,113.92461591,False
4403050070060100120,113.92644207,22.51142491,后海村16号,后海村16号,c28290f5ae024103b3418c8a8978d5a2,2,2022,9,1,商业/办公,22.51142491,113.92644207,False
4403050070010400012,113.93151771,22.5254854,滨海大道3398号,赛西科技大厦,c217f0a90d864f1c91ace3c7f14273ec,1,2022,28,1,住宅,22.5254854,113.93151771,False
4403050070010100007,113.94002254,22.52847986,科苑南路3093号,海阔天空B栋,c1dea89f96ca4c75a5f064c921a205e9,2,2022,25,1,商业/办公,22.52847986,113.94002254,False
4403050070010300015,113.92845936,22.52737976,勤学路8号,锦隆花园游泳池冲凉房,c1ce8d2d090f459cacd55801b675f23b,8,2022,1,1,教育/医疗,22.52737976,113.92845936,False
4403050070120300004,113.92367966,22.51235707,南商路22号5栋、7栋,南油B区62栋、60栋,c1b02a52e7074a01b8c0026b247515eb,1,2022,7,1,住宅,22.51235707,113.92367966,False
4403050070160500012,113.92704544,22.52865456,桂庙新村40号,粤桂社区社康中心,c171b05161b4406290270dd1702c4fef,8,2022,4,1,教育/医疗,22.52865456,113.92704544,False
4403050070160300009,113.92901214,22.53002593,桂庙新村38号,桂庙新村38号,c00195df81b24d53942d1e66e87a295e,1,2022,7,1,住宅,22.53002593,113.92901214,False
4403050070060100045,113.9263001,22.51275837,后海村107号,后海村107号,bfda51a2254046dfb2111bdf6c48d1fa,2,2022,8,1,商业/办公,22.51275837,113.9263001,False
4403050070150100009,113.92982561,22.53749207,南海大道3688号,深圳大学材料学院,bfd226f9252f47dc9c607d36dd6205b9,7,2022,2,1,城中村,22.53749207,113.92982561,False
4403050070060100043,113.92665543,22.51278421,后海村113号,后海村113号,bece943457014b678f07b44555281a11,2,2022,3,1,商业/办公,22.51278421,113.92665543,False
4403050070080600022,113.94459231,22.55031884,文华路3号,科技园36区18栋（房地产权证地址为1栋）,be7897161e004228b8a7474ef5cd6a9b,2,2022,4,1,商业/办公,22.55031884,113.94459231,False
4403050070080600019,113.94347712,22.55100806,文华路3号,科技园36区19栋（房地产权证地址为10栋）,bdf0ab944c9140baa1e83b23b6a55359,2,2022,5,1,商业/办公,22.55100806,113.94347712,False
4403050070050300009,113.9316416,22.52304906,海德三道36号,滨海之窗1栋,bd40669e5b684167b50eae015f885ee5,3,2022,17,1,工业,22.52304906,113.9316416,False
4403050070010300007,113.92777202,22.52716912,勤学路8号,锦隆花园锦虹阁A.B栋,bd1710d920364a5e8d872b96b1828264,2,2022,8,1,商业/办公,22.52716912,113.92777202,False
4403050070010100015,113.93505303,22.52645989,海天一路11、13、15号、海天二路14、16号,深圳市软件产业基地5栋,bd0d08e35435404a8aaa0cf580b78283,1,2022,13,1,住宅,22.52645989,113.93505303,False
44030500701202T0010,113.92121403,22.51212399,深圳市地铁9号线西沿线南油站项目临建（宿舍2栋）,深圳市地铁9号线西沿线南油站项目临建（宿舍2栋）,bbbad7b2280143439582a4116ef57cc0,2,2022,2,1,商业/办公,22.51212399,113.92121403,False
44030500700808T0018,113.93950313,22.54717925,科发路10号维用大厦配电房,科发路10号维用大厦配电房,bb851d7eafb4478cb7a09c3c6bcdeada,8,2022,1,1,教育/医疗,22.54717925,113.93950313,False
4403050070080400013,113.94444298,22.55137959,文华路3号,科技园38区A栋,bb712b9c6e4b4e89aac03fb6c2b339ca,2,2022,6,1,商业/办公,22.55137959,113.94444298,False
44030500700601T0001,113.92598844,22.51280953,桃园酒店通道,临时货柜箱,bb027f0a481b41b5b93a7e3b612303eb,9,2022,1,1,未知,22.51280953,113.92598844,False
4403050070140500002,113.93086036,22.50855145,北师大附中楼牌6号,办公楼,bab2d63921104ee9af7aa8ec542e2f40,8,2022,6,1,教育/医疗,22.50855145,113.93086036,False
4403050070050600004,113.9259817,22.52066686,文心二路38号,海印长城一期（海印长城幼儿园）,ba97cae2aa01412ca57a92082d7c3d78,1,2022,3,1,住宅,22.52066686,113.9259817,False
4403050070150100107,113.92848306,22.53017015,南海大道3688号,乔森阁,ba7ae8f39d724297b31884e439156f41,2,2022,21,1,商业/办公,22.53017015,113.92848306,False
4403050070120500003,113.92250534,22.50940971,建南路5号,南油A区4栋,ba4da479f7fe462192430a0710ba2e31,2,2022,6,1,商业/办公,22.50940971,113.92250534,False
4403050070110400007,113.92846923,22.50873068,后海大道2002号,文德福花园3栋,ba29424866ee407d9feb6602aab1b86a,2,2022,12,1,商业/办公,22.50873068,113.92846923,False
4403050070060100058,113.92624483,22.51242581,后海村96号,后海村96号,ba0a5775ed0945369f10b8dd3b1d9d06,2,2022,4,1,商业/办公,22.51242581,113.92624483,False
4403050070010200014,113.92781161,22.52628734,学海路1号,海文花园海月.秋.春阁A.B.C.D(商铺),ba03d2654891440886698a236a2e210c,2,2022,10,1,商业/办公,22.52628734,113.92781161,False
4403050070080700033,113.94536221,22.54721768,科发路2号,30区3栋,b9fb3a7362d8402b95d2aa1b423302aa,5,2022,6,1,公共设施,22.54721768,113.94536221,False
4403050070110200006,113.92924286,22.51453916,后海大道2248号,育德佳园6栋,b9e2df538f624987bacd4cbc9d25e37c,2,2022,18,1,商业/办公,22.51453916,113.92924286,False
4403050070042100008,113.94708947,22.53311321,高新南九道10号,深圳湾科技生态园10栋,b9ce2df26e8f4ab388c46f05fb18058d,1,2022,41,1,住宅,22.53311321,113.94708947,False
4403050070020100011,113.92359802,22.51589155,南商路91号,深蓝公寓,b9a10421c5e548c08f68aff24188cef6,3,2022,32,1,工业,22.51589155,113.92359802,False
4403050070051300013,113.92862438,22.51800946,南山区创业路6号,军事门岗之2,b984d0e79e6444358971c8b8131c8c36,8,2022,1,1,教育/医疗,22.51800946,113.92862438,False
4403050070150100066,113.9279274,22.53096841,南海大道3688号,读月楼,b911ad3716154eb58559de13d827942c,2,2022,6,1,商业/办公,22.53096841,113.9279274,False
4403050070090200006,113.92556108,22.51514515,龙城路47号南油B区43栋,南油B区43栋,b8c6c150fcd24a99a33f9043a66ec886,2,2022,7,1,商业/办公,22.51514515,113.92556108,False
4403050070060100086,113.92641024,22.51194482,后海村55号,后海村55号,b83bcf5af98b481f8c62ca76c4a422a3,2,2022,5,1,商业/办公,22.51194482,113.92641024,False
4403050070050400002,113.93454375,22.52394681,海德四道2号,南山区海德学校,b795c50534d04d489013f22b3f49c887,7,2022,5,1,城中村,22.52394681,113.93454375,False
44030500700804T0007,113.94292749,22.55205897,科技园科丰路华西建筑工棚6,科技园科丰路华西建筑工棚6,b75fbf9aacf5481eace16e41db4af4b6,1,2022,2,1,住宅,22.55205897,113.94292749,False
44030500700801T0013,113.94585251,22.5541026,科技园琼宇路旁,科技园琼宇路旁,b75aca15d7824ba1ada3617c8d262f02,2,2022,1,1,商业/办公,22.5541026,113.94585251,False
4403050070100700007,113.93065518,22.54830411,高新中二道33号,现代豪园5栋,b702772dbbf64f788127aa99ee8fb002,2,2022,24,1,商业/办公,22.54830411,113.93065518,False
4403050070080900009,113.94417749,22.54501602,科技路9号,桑达科技工业大厦,b70118afe18842b7bdd77485ef5e01f9,5,2022,7,1,公共设施,22.54501602,113.94417749,False
4403050070150100143,113.92650962,22.53129541,南山区南海大道3688号,深大垃圾回收站,b6d353a5acb84483861a5bd3290c7695,8,2022,1,1,教育/医疗,22.53129541,113.92650962,False
4403050070070200002,113.92467173,22.50845561,兴南路52号,南海花园海燕阁,b64d8bbe99e24d39bf1e64d47f68fcc4,7,2022,3,1,城中村,22.50845561,113.92467173,False
4403050070150100134,113.93463911,22.53556086,南山区南海大道3688号,网球场厕所,b553fb420fe74ab3b398bc6633c8a339,8,2022,1,1,教育/医疗,22.53556086,113.93463911,False
4403050070010400008,113.93300269,22.52538442,海天二路25号,深圳湾创业投资大厦,a084c5ef04ac4102bf29b39d628bcf4b,7,2022,47,1,城中村,22.52538442,113.93300269,False
4403050070070200003,113.92487509,22.50845817,兴南路52号,南海花园海丰阁,a01476f57642422f8bb615cc6004b7b1,2,2022,3,1,商业/办公,22.50845817,113.92487509,False
4403050070120400007,113.92126847,22.51092708,建南路35号,南油A区20栋,a00bb88f7027410882695d9adc559971,1,2022,9,1,住宅,22.51092708,113.92126847,False
4403050070160600020,113.92926948,22.52846555,桂庙新村56-5号,桂庙新村56-5号,9fe447a9d941471ea79c50c72e01fda4,2,2022,6,1,商业/办公,22.52846555,113.92926948,False
44030500700804T0002,113.94264643,22.55221356,科丰路华润建筑工人生活区B,科丰路华润建筑工人生活区B,9ecab1d77dd74d988404d0b11963def0,1,2022,2,1,住宅,22.55221356,113.94264643,False
4403050070150100059,113.92778544,22.53175977,南海大道3688号紫藤轩,紫藤轩,9eb9b176a3df4bc69f038671c95314a7,2,2022,7,2,商业/办公,22.53175977,113.92778544,False
44030500700808T0009,113.93901852,22.54760108,27栋科智西路3号路旁仓库,27栋科智西路3号路旁仓库,9e1e9105e6ad4d3cbe7c3e24fd92a082,6,2022,1,1,其他,22.54760108,113.93901852,False
4403050070150100058,113.9291315,22.53262586,南海大道3688号,文山湖餐厅,9de5fefb9209454987ef8ce655ad4692,8,2022,2,1,教育/医疗,22.53262586,113.9291315,False
4403050070060100007,113.92580468,22.51229441,后海工业区S6栋,后海工业区S6栋,9d9c7f181b7d4b67890d1c265f7c6ae3,2,2022,7,1,商业/办公,22.51229441,113.92580468,False
4403050070080700034,113.94536562,22.54678472,科发路2号,30区2栋,9d8b00dfc1b544abb3c11a3809e1ea8c,5,2022,6,1,公共设施,22.54678472,113.94536562,False
4403050070010100006,113.93978311,22.52873931,科苑南路3093号,海阔天空C栋,9d1a7882569a476a87f8041af984a462,2,2022,27,1,商业/办公,22.52873931,113.93978311,False
4403050070140400002,113.93016785,22.51278581,华明路1号,蔚蓝海岸二期16、17栋,9cab56c273d04d3793613eea8a886f1b,1,2022,19,1,住宅,22.51278581,113.93016785,False
4403050070080700035,113.94616571,22.54902133,科华路旁,小白楼,9c41a80bf67e47c5ad8bb1519b8aec0a,2,2022,2,1,商业/办公,22.54902133,113.94616571,False
4403050070120400013,113.92173135,22.51028367,建南路15号,南油A区23栋,9bb58048420548f1bf57cc1134e0ee79,2,2022,9,1,商业/办公,22.51028367,113.92173135,False
4403050070130100002,113.94926208,22.55514611,沙河西路2029号,城市山谷花园8栋,9b9199f80abb4f0eb012461d339737fd,2,2022,8,1,商业/办公,22.55514611,113.94926208,False
4403050070100800007,113.93176559,22.54659604,高新中三道9号,环球数码大厦,9b7f6776a62246c58221019a71d45f06,7,2022,18,1,城中村,22.54659604,113.93176559,False
4403050070010200010,113.92662854,22.52759109,学府路99号,学林雅院4栋,9b238f59395f45b6a29450f4f1a75ef3,2,2022,12,1,商业/办公,22.52759109,113.92662854,False
44030500700807T0019,113.94596201,22.54768762,科技园科技路旁30区9栋收购站,科技园科技路旁30区9栋收购站,9b148600fb2d456fa75da060e6d23fb7,1,2022,1,1,住宅,22.54768762,113.94596201,False
4403050070010400009,113.93106422,22.52776926,学府路85号,粤海派出所办公楼,9adafc9c83154b2b87f593892b9f9f6c,7,2022,1,1,城中村,22.52776926,113.93106422,False
4403050070050500013,113.93813205,22.52350553,后海滨路东侧,深圳湾体育中心电力控制中心,9aa0b9dea3a94db2b1b9eeb6b6e7f60c,8,2022,2,1,教育/医疗,22.52350553,113.93813205,False
4403050070050800002,113.92411822,22.52087922,文心一路99号,金钟大厦,9a8fc27764574ed9be9db3fc66e8500c,2,2022,28,1,商业/办公,22.52087922,113.92411822,False
44030500701403T0017,113.9335348,22.51117411,喜之郞建筑工程办公区,喜之郞建筑工程办公区,9a39251362b84a1ab222767c4ba5de7a,9,2022,1,1,未知,22.51117411,113.9335348,False
4403050070080600037,113.94515989,22.54954636,文华路3号,科技园36区5栋（房地产权证地址为16栋）,9a2e349725924e55bef3089ac539a7aa,2,2022,7,1,商业/办公,22.54954636,113.94515989,False
4403050070120100007,113.92574442,22.51437013,后海工业区16栋,后海工业区16栋,9a080bba6287446e966d3c2fed149e2d,3,2022,7,1,工业,22.51437013,113.92574442,False
4403050070041400004,113.94662933,22.53814643,科技南路022号,高新公寓2栋,9a068350c79840f7ab2204471b20a97a,2,2022,7,1,商业/办公,22.53814643,113.94662933,False
4403050070041900008,113.93764515,22.5326607,科苑路与岗园路交汇处,深圳大学南校区男生公寓,9a0165f751934b0e9f33474fb98b6f11,2,2022,18,1,商业/办公,22.5326607,113.93764515,False
4403050070130100041,113.95120087,22.5545101,南山区沙河西路2029号,新世界豪园俊皓府,99ab61bb7dd246beab3c9a61bc9598b5,2,2022,3,1,商业/办公,22.5545101,113.95120087,False
4403050070160300014,113.92984607,22.5301584,桂庙新村80号,桂庙新村80号,998c87586bce4d24b029c09d54d1353d,2,2022,10,1,商业/办公,22.5301584,113.92984607,False
4403050070160200043,113.93665436,22.53573831,白石路3818号,阳光粤海花园二期3栋,993fd74a72d643939d7d433d90ee7d79,4,2022,39,1,混合,22.53573831,113.93665436,False
4403050070150100051,113.93397936,22.53574859,南海大道3688号,银桦斋,993157a1f6294a34a88364245a7371b9,2,2022,6,1,商业/办公,22.53574859,113.93397936,False
44030500700423T0010,113.93649891,22.52873616,高新南十道中建二局迅雷大厦项目生活区1栋,高新南十道中建二局迅雷大厦项目生活区1栋,98a92536d813461f97f63217d9f7bebd,2,2022,2,1,商业/办公,22.52873616,113.93649891,False
4403050070050200005,113.92798784,22.52388086,海德三道202号,城市印象2栋,983b94d3ea304155b557279d5cfbd496,2,2022,22,1,商业/办公,22.52388086,113.92798784,False
4403050070160600010,113.92908658,22.52878316,桂庙新村45号,桂庙新村45号,980ec53811624c97b282f333149a4a92,2,2022,5,1,商业/办公,22.52878316,113.92908658,False
4403050070150100057,113.92896438,22.5329369,南海大道3688号,文山湖宿舍,976db4141af14935ba906fd6d6ceb5af,1,2022,3,1,住宅,22.5329369,113.92896438,False
4403050070110400004,113.92794695,22.50941465,后海大道2002号,文德福花园5栋,97629d591d4c41eb94880cdd29626a86,2,2022,12,1,商业/办公,22.50941465,113.92794695,False
4403050070043000011,113.94582796,22.52591404,南山区高新南环路1号,本涛实验幼儿园,9723afd3915e45a8936840f34c85bad5,9,2022,6,1,未知,22.52591404,113.94582796,False
4403050070090100021,113.9226789,22.51366302,登良路48号 龙城花园5栋,龙城花园5栋,8f06a31a8c024cf89d1120f63cd4996b,2,2022,6,1,商业/办公,22.51366302,113.9226789,False
4403050070160600017,113.92945922,22.52881371,桂庙新村55号,桂庙新村55号,8f01b84df6e44a34ac6f93a12bb1eb10,1,2022,7,1,住宅,22.52881371,113.92945922,False
4403050070060200002,113.92558301,22.51044764,华明路17号,怡海花园2栋,8ec09a378cdf458181318a8ddfd94be9,2,2022,7,1,商业/办公,22.51044764,113.92558301,False
4403050070101100002,113.93419275,22.54500761,麻雀岭工业区4栋,深健大厦(工业区M-4),8ebf0e52c3134bf6be3e2f899345c9e0,5,2022,6,1,公共设施,22.54500761,113.93419275,False
4403050070060100126,113.92631972,22.51103326,后海村7号,后海村7号,8eb5a2b16059460dae9e91857d87470e,2,2022,7,1,商业/办公,22.51103326,113.92631972,False
4403050070060100070,113.92655853,22.51232257,后海村80号,后海村80号,8ea408b9848246be834b5122f65da90f,2,2022,8,1,商业/办公,22.51232257,113.92655853,False
4403050070150100052,113.93320027,22.5353554,南海大道3688号,学生活动中心,8e9e6d72736c47aaa568c16f5ee7b27a,1,2022,4,1,住宅,22.5353554,113.93320027,False
4403050070043000010,113.94681198,22.52526089,高新南环路2号,岸芷汀兰1栋,8e8bebbba2f74be5b31b33296d90e622,2,2022,26,1,商业/办公,22.52526089,113.94681198,False
4403050070080600031,113.94443599,22.54990698,文华路3号,科技园36区11栋（房地产权证地址为5栋）,8e60bb78577040b88ff5ac2a0ec1b05e,2,2022,7,1,商业/办公,22.54990698,113.94443599,False
4403050070160600009,113.92897794,22.5287773,桂庙新村46号,桂庙新村46号,8e5159a89c37403cbfc362e2d71b6b88,2,2022,5,1,商业/办公,22.5287773,113.92897794,False
44030500701501T0008,113.92943099,22.53919127,南山区南海大道3688号深圳大学配电房,南山区南海大道3688号深圳大学配电房,8e00ae49befc436aa51077b4077de2fc,8,2022,2,1,教育/医疗,22.53919127,113.92943099,False
4403050070020200003,113.92646457,22.51737683,深圳市南山区创业路7号西海湾花园6、7栋,西海湾花园6、7栋,8d8b2ed1e84d44459bf06492e0b1488b,3,2022,18,1,工业,22.51737683,113.92646457,False
4403050070051200002,113.92299612,22.51853146,南海大道2706号,保利大厦,8d31c1bab6c9490dbe1d60ec322fe369,1,2022,27,1,住宅,22.51853146,113.92299612,False
4403050070020300004,113.92484982,22.51660943,南商路112号,碧海天家园B1、B2栋,8cb9803a05424ff4965ef394bb8ac0c8,2,2022,9,1,商业/办公,22.51660943,113.92484982,False
4403050070030400138,113.94559113,22.54434629,科技路2号,E栋怡景阁、F栋翠景阁,8c9fb595101d4338bc3059b75769b038,3,2022,12,1,工业,22.54434629,113.94559113,False
4403050070160500004,113.92667835,22.52911353,桂庙新村27号,桂庙新村27号,8c9c295bbe9949fab89609a6e14dafbf,3,2022,4,1,工业,22.52911353,113.92667835,False
4403050070060100081,113.9262886,22.51206181,后海村62号,后海村62号,8c56c3af47804b6297bb9955faeeea37,2,2022,4,1,商业/办公,22.51206181,113.9262886,False
4403050070140200001,113.93206133,22.516238,登良路8号,蔚蓝海岸三期39栋,8c49becf5b1845e4843397e437cce20f,2,2022,18,1,商业/办公,22.516238,113.93206133,False
44030500701202T0009,113.92124654,22.5122038,深圳市地铁9号线西延线南油站项目临建（宿舍三栋）,深圳市地铁9号线西延线南油站项目临建（宿舍三栋）,8be7a606dc294893b8d76a66bf64c6e4,2,2022,2,1,商业/办公,22.5122038,113.92124654,False
4403050070110400001,113.92813195,22.51060103,华明路1号,蔚蓝海岸四期东、西座,8bd85f845be94e50ada0da6734a92264,3,2022,18,1,工业,22.51060103,113.92813195,False
4403050070160300006,113.92852977,22.52968258,桂庙新村37号,桂庙新村37号,8bd30572ef2543e9a1df14ae415e7831,3,2022,3,1,工业,22.52968258,113.92852977,False
4403050070100400008,113.92977285,22.55099081,高新中二道19号,多普勒医药园锅炉房B,8bc172c1f6554c25b28da8fea97a0584,9,2022,1,1,未知,22.55099081,113.92977285,False
4403050070160300039,113.92899521,22.5292684,桂庙新村65号,桂庙新村65号,8b2dae8d0bcf4e5abf0dac1c0c6deead,2,2022,3,1,商业/办公,22.5292684,113.92899521,False
4403050070020100004,113.92317285,22.51679406,南海大道2618号,粤海街道办事处,8b17b5d337f54cb8935ec8851093449c,7,2022,8,1,城中村,22.51679406,113.92317285,False
4403050070100800009,113.93283831,22.54662324,科技中二路19号,劲嘉科技大厦,8b04ec71f72f47bf9c98fc193d30efbe,7,2022,24,1,城中村,22.54662324,113.93283831,False
4403050070060100076,113.92629958,22.51212544,后海村63号,后海村63号,8acce850b02c48be8a8c2e076eb4018f,3,2022,4,1,工业,22.51212544,113.92629958,False
4403050070120100013,113.92477261,22.51258425,兴南路54号17栋,南油B区27栋,8a94b198aad74d2fa674864ae7279d8c,1,2022,6,1,住宅,22.51258425,113.92477261,False
4403050070060100050,113.92609372,22.51255447,后海村104号,后海村104号,8a91737448ce4aafaf562d79107b180f,2,2022,11,1,商业/办公,22.51255447,113.92609372,False
4403050070140300005,113.93731601,22.51110228,科苑南路3233号,深圳湾1号T2栋,8a2ad7c3369d46d0bad4d5f298db5ee3,3,2022,35,1,工业,22.51110228,113.93731601,False
4403050070041300006,113.93899151,22.53810078,高新南四道019号,高新工业村管理处,89d28bc31fa14ae0a09205bc87abd455,7,2022,1,1,城中村,22.53810078,113.93899151,False
4403050070010400003,113.93142066,22.52653272,海天二路26号,深圳市软件产业基地3栋,89967e27eac4443fb103495e0dcc5874,1,2022,3,1,住宅,22.52653272,113.93142066,False
4403050070060100073,113.9265646,22.51214574,后海村70号,后海村70号,88cdcdbc836d42f589f9ceb0556a7551,3,2022,3,1,工业,22.51214574,113.9265646,False
4403050070140400009,113.93053188,22.51222334,华明路1号,蔚蓝海岸二期13栋,887b2d1f1f654ce1b9cf4efd233b7549,2,2022,12,1,商业/办公,22.51222334,113.93053188,False
4403050070010300005,113.92925644,22.52754116,勤学路8号,锦隆花园锦晖阁B.C栋,8867f1f4eb364a2bb530088fcd19a860,2,2022,7,1,商业/办公,22.52754116,113.92925644,False
4403050070120500009,113.92315054,22.5102851,华明路5号旁,南油慢性病防冶院新增加办公楼,87fd6cc7aee64492a883c0dd17213540,8,2022,6,1,教育/医疗,22.5102851,113.92315054,False
4403050070160300063,113.92909619,22.52918063,桂庙新村65-1号,桂庙新村65-1号,b4676dab01904a8ca6f8eb440de4db06,4,2022,1,1,混合,22.52918063,113.92909619,False
4403050070150100098,113.93147003,22.53125194,南海大道3688号,"海滨小区9栋,10栋",b41db2326cb44453a90010453b2175fe,2,2022,7,1,商业/办公,22.53125194,113.93147003,False
4403050070150100026,113.93187267,22.53531996,南海大道3688号,教学楼,b3feeb70924c4db18441b2a19c0dd385,1,2022,6,1,住宅,22.53531996,113.93187267,False
4403050070150100021,113.92594224,22.53117258,南海大道3688号,新西南餐厅,b3e86b6f64d1424fb7e8ed2c94d526cf,1,2022,6,1,住宅,22.53117258,113.92594224,False
4403050070041900009,113.93683625,22.5342878,科苑路与岗园路交汇处,深圳大学南校区女生公寓,b3d5dbd375eb412abcd5865652dd51c7,2,2022,18,1,商业/办公,22.5342878,113.93683625,False
4403050070120400009,113.92143743,22.51071375,建南路27号,南油A区21栋,b1e859c20970412380f7f68650d79731,1,2022,9,1,住宅,22.51071375,113.92143743,False
4403050070060100051,113.92642969,22.5125909,后海村92号,后海村92号,b1c50d7785b840989ab3c76ab69810f6,2,2022,2,1,商业/办公,22.5125909,113.92642969,False
4403050070160500013,113.92732513,22.52876011,桂庙新村41号,桂庙新村41号,b14fae11abee4ae7a65593e99472f80d,4,2022,6,1,混合,22.52876011,113.92732513,False
4403050070051300007,113.93094935,22.51760478,创业路12号,创业污水泵站,b0d8790bd318492bb91295a7251d3a05,5,2022,2,1,公共设施,22.51760478,113.93094935,False
4403050070120100006,113.92536325,22.51321044,登良路28号,后海市场,b04dae84cd9745cc87ecd936687a9751,1,2022,7,1,住宅,22.51321044,113.92536325,False
4403050070080400029,113.94535686,22.55072431,文华路4号-12,科技园38区B4别墅,b017aad2d49943faa7c37afb7d503b22,2,2022,3,1,商业/办公,22.55072431,113.94535686,False
4403050070060100155,113.926682,22.51162777,后海村23号,后海村23号,afd229b000ff404f968482906da324f3,1,2022,9,1,住宅,22.51162777,113.926682,False
44030500700802T0002,113.93868119,22.55287591,高新中一道2号,高新中一道2号,afc69850f7514d47a09f117b30fc3c85,7,2022,1,1,城中村,22.55287591,113.93868119,False
44030500700807T0007,113.94332967,22.54783189,科慧路1号,科慧路1号,afa8aaf1aed643d9bc0c42fb82b6ac5d,9,2022,1,1,未知,22.54783189,113.94332967,False
4403050070120100008,113.92572578,22.51399258,后海工业区13栋,后海工业区13栋,af997f5588a443bb8827a62a4d5b5a5a,5,2022,4,1,公共设施,22.51399258,113.92572578,False
4403050070140500008,113.93160215,22.50852143,教学楼之一楼牌1号,教学楼之四,af7e9aaa463a405f9dd7ab17ee0804e9,8,2022,6,1,教育/医疗,22.50852143,113.93160215,False
4403050070081000017,113.94016964,22.54546697,科苑路3号,综合实验楼11栋,ae4e326019a241d1bfa185c165c6ea6f,1,2022,4,1,住宅,22.54546697,113.94016964,False
4403050070150100074,113.93030683,22.53133777,南海大道3688号,海涛楼,adf4e1ad595f4a81a24687cb1552ce8e,2,2022,6,1,商业/办公,22.53133777,113.93030683,False
4403050070041400003,113.94662224,22.53855806,科技南路022号,高新公寓1栋,ad5787d0ae154a659258c029b4ad12f3,2,2022,7,1,商业/办公,22.53855806,113.94662224,False
4403050070130100018,113.95190625,22.5549761,沙河西路2029号,新世界豪园阳明府3号,ad33c2d2a096444a92bf3b364875a4b7,2,2022,2,1,商业/办公,22.5549761,113.95190625,False
4403050070080700036,113.94595141,22.54858954,科发路2号,30区7栋,ace69dcc67d34b32a82d06421f75950a,2,2022,7,1,商业/办公,22.54858954,113.94595141,False
44030500700806T0015,113.9456985,22.54989915,科华路2号东门,科华路2号东门,acd85867e2784a3e9dae72317df3581e,8,2022,2,1,教育/医疗,22.54989915,113.9456985,False
44030500701202T0015,113.92150109,22.5126808,深圳市地贴9号线西延线南油站项目临建（工人宿舍九栋）,深圳市地贴9号线西延线南油站项目临建（工人宿舍九栋）,acd226a971b64808bdd91534c3b4f826,2,2022,2,1,商业/办公,22.5126808,113.92150109,False
4403050070120400022,113.92129699,22.50822556,东滨路10号,东滨华苑悦山阁、悦海阁,ac5975fb2d5d4f2d8693838e353fd689,1,2022,20,1,住宅,22.50822556,113.92129699,False
4403050070160300027,113.928879,22.5294975,桂庙新村66-1号,桂庙新村66-1号,ab0041a72f1248f99fbd9227483a97c1,2,2022,8,1,商业/办公,22.5294975,113.928879,False
4403050070090100018,113.92261575,22.51407441,登良路48号 龙城花园7栋,龙城花园7栋,aafb84a29b2d4dddab1882830c2db3b6,2,2022,6,1,商业/办公,22.51407441,113.92261575,False
4403050070010300019,113.9274845,22.52593502,书山路11号,学府小学垃圾房,aaaf33139ec742e5a17fc8dbbe2a74d2,8,2022,1,1,教育/医疗,22.52593502,113.9274845,False
4403050070160100002,113.9378678,22.54004296,南山区南海大道3688号,深圳大学东门,aa3ab34376ff40328a7e06c2527b4691,8,2022,2,1,教育/医疗,22.54004296,113.9378678,False
4403050070140400012,113.93055605,22.5116464,华明路1号,蔚蓝海岸二期11栋,aa02b19089774c8b949b3e5aff73f4ed,2,2022,12,1,商业/办公,22.5116464,113.93055605,False
4403050070060100175,113.9263978,22.51359991,后海村146-1号,后海村146-1号,a9d5b54ea7fe44e0a9e814b63e9710b8,2,2022,1,1,商业/办公,22.51359991,113.9263978,False
4403050070051300010,113.93017414,22.51866788,海德一道113号,学府中学教学楼附属楼,a99fcd2c252140dabce9a0968c9d68c7,8,2022,4,1,教育/医疗,22.51866788,113.93017414,False
4403050070070200001,113.92450036,22.50847483,兴南路52号,南海花园惠民地产,a8ccbb4492d84e9591bdf25ead676ee5,7,2022,3,1,城中村,22.50847483,113.92450036,False
4403050070060100159,113.92663448,22.51128679,后海村17号B,后海村17号B,a8bc37c532d34e55b8cd1f41fe033299,2,2022,8,1,商业/办公,22.51128679,113.92663448,False
4403050070150100022,113.92654215,22.53114547,南海大道3688号,西南餐厅,a81bdf9ed47b4acfa96ce6333faddb85,8,2022,2,1,教育/医疗,22.53114547,113.92654215,False
4403050070042300015,113.93687868,22.53017799,高新南九道53号,航空航天大厦2号楼,a81291e2f1ad4d7c81a4f54aa912830c,1,2022,15,1,住宅,22.53017799,113.93687868,False
4403050070090200016,113.9267306,22.51476197,龙商街龙滨花园左侧 厂房,厂房,a7bf1aaf9b1e41d0a262ce515649e627,5,2022,4,1,公共设施,22.51476197,113.9267306,False
4403050070090100019,113.92295772,22.51407931,登良路48号 龙城花园8栋,龙城花园8栋,a6f01cb685d5435c89f4902382eb10ad,2,2022,6,1,商业/办公,22.51407931,113.92295772,False
4403050070120100016,113.92465939,22.51214552,兴南路54号13栋,南油B区23栋,a6c859b34c544a4297fdb0ff65ad6b83,1,2022,7,1,住宅,22.51214552,113.92465939,False
4403050070080300009,113.94702074,22.55177007,青梧路2号,科技园58区9栋,a56c766047244cffa5d2f00436d13cbf,2,2022,7,1,商业/办公,22.55177007,113.94702074,False
4403050070010300004,113.92895929,22.52760311,勤学路8号,锦隆花园锦晖阁A栋,a5582be0ef434cf5a00ffccfe6a3a549,2,2022,7,1,商业/办公,22.52760311,113.92895929,False
44030500700419T0003,113.93362634,22.52853116,深圳大学南校区南方电网10KV变深圳大学电站,深圳大学南校区南方电网10KV变深圳大学电站,a54267c7f7a84aa8aa7b10a981b6a8e1,9,2022,1,1,未知,22.52853116,113.93362634,False
4403050070060100111,113.92617564,22.51133095,后海村13号,后海村13号,a502353b119e48d19fc0129283799b87,2,2022,7,1,商业/办公,22.51133095,113.92617564,False
4403050070041900017,113.93324238,22.53063979,白石路3883号深圳大学南校区,深圳大学南校区信息工程与电子科学院,a4b6a36600d34507a61f7d962d2c6654,9,2022,10,1,未知,22.53063979,113.93324238,False
4403050070080400030,113.94549918,22.5507272,文华路4号-11,科技园38区B3号别墅,a47e2465c05f4081a1d7abe3db2c0422,2,2022,3,1,商业/办公,22.5507272,113.94549918,False
4403050070050700003,113.9288285,22.52050394,南山区海德一道88号,中洲控股金融中心,a45cf8652b1c4b9794f9339f72c195f8,4,2022,64,1,混合,22.52050394,113.9288285,False
4403050070160300054,113.92992856,22.52969109,桂庙新村94号,桂庙新村祠堂,a390176ca06f4ad8b168f0ced758cca8,8,2022,1,1,教育/医疗,22.52969109,113.92992856,False
4403050070060100022,113.92639861,22.51336621,后海村142号,后海村142号,a3410af109bb47bfb7ee4d05bf7546d4,2,2022,10,1,商业/办公,22.51336621,113.92639861,False
4403050070060100069,113.92655232,22.51238648,后海村82号,后海村82号,a333405550b7416eafefc5083017af82,2,2022,10,1,商业/办公,22.51238648,113.92655232,False
4403050070010300020,113.92782303,22.52739865,勤学路8号,锦隆花园幼儿园门卫室,a2f1ebba153f4d16ba0f43ac557475a1,8,2022,1,1,教育/医疗,22.52739865,113.92782303,False
4403050070120100029,113.92512722,22.51093934,兴南路54号1栋,南油B区11栋,a1d83efa90d64b159da0943b70f45002,1,2022,6,1,住宅,22.51093934,113.92512722,False
4403050070041500005,113.94765185,22.5364749,科技南八路2号,豪威科技大厦,a1cdc2ad64af42e69b46fe6ff4a83d26,1,2022,28,1,住宅,22.5364749,113.94765185,False
4403050070120200004,113.92290321,22.512716,建南路2号5栋,南油A区28栋,a1c736bedc4b4b38973046ce27f2127f,2,2022,6,1,商业/办公,22.512716,113.92290321,False
4403050070041500011,113.94762479,22.53811547,科技南八路12号,超多维科技大厦,a1a087bbcdb14f0e8e0e2a159683b108,1,2022,20,1,住宅,22.53811547,113.94762479,False
4403050070060100083,113.92627572,22.51198349,后海村60号,后海村60号,a199534cad864a20bcb7b3b54dcde20f,2,2022,5,1,商业/办公,22.51198349,113.92627572,False
44030500701202T0016,113.92153463,22.51275415,深圳市地铁9号线西延线南油站项目临建（工人宿舍10）,深圳市地铁9号线西延线南油站项目临建（工人宿舍10）,a1920f478473493b9c8501a48d2f4dfc,2,2022,2,1,商业/办公,22.51275415,113.92153463,False
4403050070080600033,113.9451595,22.55001724,文华路3号,科技园36区14栋（房地产权证地址为7栋）,a13a0d63278a4ff8a14f9303c8e91397,2,2022,7,1,商业/办公,22.55001724,113.9451595,False
4403050070110400006,113.92846021,22.50913405,后海大道2002号,文德福花园4栋,a13470c471e744f49e3b0fc2bdeef93f,2,2022,12,1,商业/办公,22.50913405,113.92846021,False
4403050070100900003,113.93466287,22.54799502,高新中二道2号 深圳软件园2栋,深圳软件园2栋,97179b5f831341da9161595b18386ac2,7,2022,6,2,城中村,22.54799502,113.93466287,False
4403050070120100024,113.92457443,22.51132681,兴南路54号6栋,南油B区16栋,96eb17294406427a9315b8c0d3a2130c,1,2022,6,1,住宅,22.51132681,113.92457443,False
4403050070160300042,113.92929969,22.52957741,桂庙新村62号,桂庙新村62号,96d32190672d450fbb4798534fac0781,2,2022,6,1,商业/办公,22.52957741,113.92929969,False
4403050070140400019,113.93009272,22.51018642,华明路1号,蔚蓝海岸一期9栋,96b69ccc60e04b788a4b827e061699b4,2,2022,12,1,商业/办公,22.51018642,113.93009272,False
44030500700807T0005,113.94377847,22.54845957,科慧路1号,科慧路1号,963a6bf2962b4bb7a811b23f85f968e4,2,2022,1,1,商业/办公,22.54845957,113.94377847,False
4403050070140200003,113.93284958,22.51611988,登良路8号,蔚蓝海岸三期40栋,95e0a2cf271b4f0b8dd8ad9a1d627676,2,2022,31,1,商业/办公,22.51611988,113.93284958,False
4403050070080100034,113.94530451,22.55301344,科丰路2号,特发信息港大厦E栋,953bada435364475a43d4521f25bbae9,7,2022,7,1,城中村,22.55301344,113.94530451,False
4403050070101000008,113.93443636,22.54639975,高新中四道6号,凯丽花园6栋,951b88b7216d4fcdb08277c0ab14399b,2,2022,8,1,商业/办公,22.54639975,113.93443636,False
4403050070051300003,113.92876364,22.51862283,后海大道2714号,乐安居家具装饰材料市场,94eb1694f0b84f7993d9427d94d06ccc,4,2022,3,1,混合,22.51862283,113.92876364,False
4403050070040500002,113.95109167,22.54050655,科技南十二路009号,迈瑞研发大楼,94da75467e4a4b98bc6ceba475944615,7,2022,7,1,城中村,22.54050655,113.95109167,False
4403050070042300005,113.93846189,22.53014866,粤兴四道1号,中山大学深圳产学研大楼,94380c4b3699465cb04aa36c1e749858,1,2022,18,1,住宅,22.53014866,113.93846189,False
4403050070120100005,113.92528913,22.51353494,兴南路72号,南油B区32栋,93d2d208d5f14856b870449fe017e1fa,2,2022,8,1,商业/办公,22.51353494,113.92528913,False
4403050070160300018,113.92769204,22.5291424,桂庙新村35号,桂庙新村35号,93cc5f22ae784ae798b25fbbcc517dd9,4,2022,5,1,混合,22.5291424,113.92769204,False
44030500700802T0001,113.94000853,22.55339941,科苑路旁,科苑路旁,93959ce558694af9915445c89ba6ec5c,9,2022,1,1,未知,22.55339941,113.94000853,False
4403050070120400014,113.92200688,22.51033287,建南路7号,南油A区16栋,935c834529234cf2aa213a9e13a87197,1,2022,9,1,住宅,22.51033287,113.92200688,False
4403050070120300003,113.92412678,22.51256311,南商路22号8栋,南油B区63栋,930304a785fc4c578f2f8affdd8eec4d,1,2022,7,1,住宅,22.51256311,113.92412678,False
4403050070041200005,113.93730197,22.53789168,科技南一路28号,达实大厦,928a80525c53434db12d61419d9ad2a4,1,2022,48,1,住宅,22.53789168,113.93730197,False
4403050070160300017,113.93043281,22.53042484,桂庙新村85号,桂庙新村85号,9233203ba36849a7be56601e6246de66,2,2022,12,1,商业/办公,22.53042484,113.93043281,False
