{"version": 0.6, "generator": "Overpass API 0.7.62.11 87bfad18", "osm3s": {"timestamp_osm_base": "2026-05-19T07:51:46Z", "copyright": "The data included in this document is from www.openstreetmap.org. The data is made available under ODbL."}, "elements": [{"type": "node", "id": 11609568060, "lat": 22.5756376, "lon": 114.8961041, "tags": {"addr:housenumber": "260", "addr:place": "\u4e09\u533a", "check_date": "2025-03-27", "name": "\u4e00\u5fb7\u6d77\u5473", "phone": "+86 159 7618 7654", "shop": "seafood"}}, {"type": "node", "id": 11609850715, "lat": 22.5757851, "lon": 114.8960926, "tags": {"branch": "\u7ca424444", "brand": "\u7f8e\u5b9c\u4f73", "brand:en": "Meiyijia", "brand:wikidata": "Q55719551", "brand:zh": "\u7f8e\u5b9c\u4f73", "check_date": "2025-03-27", "name": "\u7f8e\u5b9c\u4f73", "name:en": "Meiyijia", "name:zh": "\u7f8e\u5b9c\u4f73", "shop": "convenience"}}, {"type": "node", "id": 11609895828, "lat": 22.5765718, "lon": 114.8958366, "tags": {"name": "\u6d77\u9c9c\u6279\u53d1\u96f6\u552e", "official_name": "\u60e0\u4e1c\u53bf\u6e2f\u53e3\u9633\u8bb0\u6d77\u9c9c\u5e97", "shop": "seafood"}}, {"type": "node", "id": 11609945686, "lat": 22.580196, "lon": 114.8921137, "tags": {"brand": "\u7f8e\u5b9c\u4f73", "brand:en": "Meiyijia", "brand:wikidata": "Q55719551", "brand:zh": "\u7f8e\u5b9c\u4f73", "name": "\u7f8e\u5b9c\u4f73", "name:en": "Meiyijia", "name:zh": "\u7f8e\u5b9c\u4f73", "shop": "convenience"}}, {"type": "node", "id": 12704472569, "lat": 22.5757285, "lon": 114.8960972, "tags": {"check_date": "2025-03-27", "name": "\u6d77\u9e25\u6d77\u5473", "phone": "+86 752 8563 456", "shop": "seafood"}}, {"type": "node", "id": 12704690532, "lat": 22.5774487, "lon": 114.8925949, "tags": {"branch": "\u7ca48945", "check_date": "2025-03-27", "name": "\u7f8e\u5b9c\u4f73", "shop": "convenience"}}, {"type": "node", "id": 13258165437, "lat": 22.4900787, "lon": 114.5409586, "tags": {"brand": "\u7f8e\u5b9c\u4f73", "brand:en": "Meiyijia", "brand:wikidata": "Q55719551", "brand:zh": "\u7f8e\u5b9c\u4f73", "name": "\u7f8e\u5b9c\u4f73", "name:en": "Meiyijia", "name:zh": "\u7f8e\u5b9c\u4f73", "shop": "convenience"}}, {"type": "node", "id": 13258165438, "lat": 22.4909361, "lon": 114.5787628, "tags": {"brand": "\u7f8e\u5b9c\u4f73", "brand:en": "Meiyijia", "brand:wikidata": "Q55719551", "brand:zh": "\u7f8e\u5b9c\u4f73", "name": "\u7f8e\u5b9c\u4f73", "name:en": "Meiyijia", "name:zh": "\u7f8e\u5b9c\u4f73", "shop": "convenience"}}, {"type": "node", "id": 13258165439, "lat": 22.548488, "lon": 114.5648467, "tags": {"brand": "\u7f8e\u5b9c\u4f73", "brand:en": "Meiyijia", "brand:wikidata": "Q55719551", "brand:zh": "\u7f8e\u5b9c\u4f73", "name": "\u7f8e\u5b9c\u4f73", "name:en": "Meiyijia", "name:zh": "\u7f8e\u5b9c\u4f73", "shop": "convenience"}}, {"type": "node", "id": 13258165440, "lat": 22.5480071, "lon": 114.5669813, "tags": {"brand": "\u7f8e\u5b9c\u4f73", "brand:en": "Meiyijia", "brand:wikidata": "Q55719551", "brand:zh": "\u7f8e\u5b9c\u4f73", "name": "\u7f8e\u5b9c\u4f73", "name:en": "Meiyijia", "name:zh": "\u7f8e\u5b9c\u4f73", "shop": "convenience"}}, {"type": "node", "id": 13290245378, "lat": 22.486612, "lon": 114.54552, "tags": {"brand": "7-Eleven", "brand:wikidata": "Q259340", "name": "7-Eleven", "shop": "convenience"}}]}