{"version": 0.6, "generator": "Overpass API 0.7.62.11 87bfad18", "osm3s": {"timestamp_osm_base": "2026-05-19T07:51:46Z", "copyright": "The data included in this document is from www.openstreetmap.org. The data is made available under ODbL."}, "elements": [{"type": "node", "id": 335944809, "lat": 22.207797, "lon": 114.02902, "tags": {"addr:city": "Cheung Chau", "addr:country": "HK", "addr:housenumber": "42", "addr:street": "\u6d77\u508d\u8857 Praya Street", "level": "0", "name": "\u6674\u5c0f\u5df7 Sunny Alley", "name:en": "Sunny Alley", "name:zh": "\u6674\u5c0f\u5df7", "shop": "bakery"}}, {"type": "node", "id": 335944847, "lat": 22.2089152, "lon": 114.0287857, "tags": {"brand": "\u60e0\u5eb7 Wellcome", "brand:en": "Wellcome", "brand:wikidata": "Q706247", "brand:wikipedia": "zh:\u60e0\u5eb7", "brand:zh": "\u60e0\u5eb7", "brand:zh-Hans": "\u60e0\u5eb7", "brand:zh-Hant": "\u60e0\u5eb7", "name": "\u60e0\u5eb7 Wellcome", "name:en": "Wellcome", "name:zh": "\u60e0\u5eb7", "name:zh-Hans": "\u60e0\u5eb7", "name:zh-Hant": "\u60e0\u5eb7", "shop": "supermarket"}}, {"type": "node", "id": 1640057839, "lat": 22.2070216, "lon": 114.0288412, "tags": {"brand": "\u767e\u4f73\u8d85\u7d1a\u5e02\u5834 PARKnSHOP", "brand:en": "PARKnSHOP", "brand:wikidata": "Q7138619", "brand:zh": "\u767e\u4f73\u8d85\u7d1a\u5e02\u5834", "brand:zh-Hans": "\u767e\u4f73\u8d85\u7d1a\u5e02\u5834", "brand:zh-Hant": "\u767e\u4f73\u8d85\u7ea7\u5e02\u573a", "name": "\u767e\u4f73 PARKnSHOP", "name:en": "PARKnSHOP", "name:zh": "\u767e\u4f73", "name:zh-Hans": "\u767e\u4f73", "name:zh-Hant": "\u767e\u4f73", "operator": "\u5c48\u81e3\u6c0f\u96c6\u5718 A.S. Watson Group", "operator:en": "A.S. Watson Group", "operator:wikidata": "Q4647401", "operator:zh": "\u5c48\u81e3\u6c0f\u96c6\u5718", "operator:zh-Hans": "\u5c48\u81e3\u6c0f\u96c6\u56e2", "operator:zh-Hant": "\u5c48\u81e3\u6c0f\u96c6\u5718", "shop": "supermarket"}}, {"type": "node", "id": 1709427177, "lat": 22.2050705, "lon": 114.0272295, "tags": {"service:bicycle:rental": "yes", "service:bicycle:repair": "yes", "service:bicycle:retail": "yes", "service:bicycle:second_hand": "yes", "shop": "bicycle"}}, {"type": "node", "id": 1709427181, "lat": 22.2054089, "lon": 114.0271713, "tags": {"name": "\u856d\u8a18\u55ae\u8eca", "service:bicycle:rental": "yes", "service:bicycle:repair": "yes", "service:bicycle:retail": "yes", "service:bicycle:second_hand": "yes", "shop": "bicycle"}}, {"type": "node", "id": 2077087156, "lat": 22.2085336, "lon": 114.0295074, "tags": {"brand": "\u767e\u4f73\u8d85\u7d1a\u5e02\u5834 PARKnSHOP", "brand:en": "PARKnSHOP", "brand:wikidata": "Q7138619", "brand:zh": "\u767e\u4f73\u8d85\u7d1a\u5e02\u5834", "brand:zh-Hans": "\u767e\u4f73\u8d85\u7d1a\u5e02\u5834", "brand:zh-Hant": "\u767e\u4f73\u8d85\u7ea7\u5e02\u573a", "name": "\u767e\u4f73 PARKnSHOP", "name:en": "PARKnSHOP", "name:zh": "\u767e\u4f73", "name:zh-Hans": "\u767e\u4f73", "name:zh-Hant": "\u767e\u4f73", "operator": "\u5c48\u81e3\u6c0f\u96c6\u5718 A.S. Watson Group", "operator:en": "A.S. Watson Group", "operator:wikidata": "Q4647401", "operator:zh": "\u5c48\u81e3\u6c0f\u96c6\u5718", "operator:zh-Hans": "\u5c48\u81e3\u6c0f\u96c6\u56e2", "operator:zh-Hant": "\u5c48\u81e3\u6c0f\u96c6\u5718", "shop": "supermarket"}}, {"type": "node", "id": 4255649359, "lat": 22.208561, "lon": 114.028843, "tags": {"addr:country": "HK", "addr:housenumber": "107", "addr:street": "\u65b0\u8208\u8857 San Hing Street", "brand": "OK\u4fbf\u5229\u5e97 Circle K", "brand:en": "Circle K", "brand:wikidata": "Q3268010", "brand:wikipedia": "zh:OK\u4fbf\u5229\u5e97", "brand:zh": "OK\u4fbf\u5229\u5e97", "brand:zh-Hans": "OK\u4fbf\u5229\u5e97", "brand:zh-Hant": "OK\u4fbf\u5229\u5e97", "name": "OK\u4fbf\u5229\u5e97 Circle K", "name:en": "Circle K", "name:zh": "OK\u4fbf\u5229\u5e97", "name:zh-Hans": "OK\u4fbf\u5229\u5e97", "name:zh-Hant": "OK\u4fbf\u5229\u5e97", "opening_hours": "Mo-Su,PH 06:30-00:00", "shop": "convenience", "website": "https://www.circlek.hk/"}}, {"type": "node", "id": 4255649362, "lat": 22.207167, "lon": 114.0288523, "tags": {"brand": "\u60e0\u5eb7 Wellcome", "brand:en": "Wellcome", "brand:wikidata": "Q706247", "brand:wikipedia": "zh:\u60e0\u5eb7", "brand:zh": "\u60e0\u5eb7", "brand:zh-Hans": "\u60e0\u5eb7", "brand:zh-Hant": "\u60e0\u5eb7", "name": "\u60e0\u5eb7 Wellcome", "name:en": "Wellcome", "name:zh": "\u60e0\u5eb7", "name:zh-Hans": "\u60e0\u5eb7", "name:zh-Hant": "\u60e0\u5eb7", "shop": "supermarket"}}, {"type": "node", "id": 4317247269, "lat": 22.208611, "lon": 114.028839, "tags": {"addr:housenumber": "105", "addr:street": "San Hing Street", "brand": "\u73ed\u5c3c\u8def Baleno", "brand:en": "Baleno", "brand:wikidata": "Q4850707", "brand:zh": "\u73ed\u5c3c\u8def", "level": "0", "name": "\u73ed\u5c3c\u8def Baleno", "name:en": "Baleno", "name:zh": "\u73ed\u5c3c\u8def", "shop": "clothes"}}, {"type": "node", "id": 4317247270, "lat": 22.208173, "lon": 114.02888, "tags": {"addr:country": "HK", "addr:housenumber": "34", "addr:street": "\u6d77\u508d\u8857 Praya Street", "brand": "OK\u4fbf\u5229\u5e97 Circle K", "brand:en": "Circle K", "brand:wikidata": "Q3268010", "brand:wikipedia": "zh:OK\u4fbf\u5229\u5e97", "brand:zh": "OK\u4fbf\u5229\u5e97", "brand:zh-Hans": "OK\u4fbf\u5229\u5e97", "brand:zh-Hant": "OK\u4fbf\u5229\u5e97", "level": "0", "name": "OK\u4fbf\u5229\u5e97 Circle K", "name:en": "Circle K", "name:zh": "OK\u4fbf\u5229\u5e97", "name:zh-Hans": "OK\u4fbf\u5229\u5e97", "name:zh-Hant": "OK\u4fbf\u5229\u5e97", "opening_hours": "24/7", "shop": "convenience", "website": "https://www.circlek.hk/"}}, {"type": "node", "id": 4317247277, "lat": 22.208081, "lon": 114.028882, "tags": {"addr:country": "HK", "addr:housenumber": "36", "addr:street": "\u6d77\u508d\u8857 Praya Street", "brand": "7-Eleven", "brand:wikidata": "Q259340", "brand:wikipedia": "en:7-Eleven", "name": "7-Eleven", "name:en": "7-Eleven", "name:zh": "7-11\u4fbf\u5229\u5e97", "opening_hours": "24/7", "shop": "convenience", "website": "https://www.7-eleven.com.hk/"}}, {"type": "node", "id": 4920624824, "lat": 22.2075531, "lon": 114.0288558, "tags": {"brand": "\u5c48\u81e3\u6c0f Watsons", "brand:en": "Watsons", "brand:wikidata": "Q7974785", "brand:wikipedia": "zh:\u5c48\u81e3\u6c0f", "brand:zh": "\u5c48\u81e3\u6c0f", "brand:zh-Hans": "\u5c48\u81e3\u6c0f", "brand:zh-Hant": "\u5c48\u81e3\u6c0f", "name": "\u5c48\u81e3\u6c0f Watsons", "name:en": "Watsons", "name:zh": "\u5c48\u81e3\u6c0f", "name:zh-Hans": "\u5c48\u81e3\u6c0f", "name:zh-Hant": "\u5c48\u81e3\u6c0f", "shop": "chemist"}}, {"type": "node", "id": 7205316156, "lat": 22.2078773, "lon": 114.0288855, "tags": {"branch": "Japan Home Centre", "brand": "\u65e5\u672c\u57ce JHC", "brand:en": "JHC", "brand:wikidata": "Q11507765", "brand:zh": "\u65e5\u672c\u57ce", "brand:zh-Hans": "\u65e5\u672c\u57ce", "brand:zh-Hant": "\u65e5\u672c\u57ce", "name": "\u65e5\u672c\u57ce JHC", "name:en": "JHC", "name:zh": "\u65e5\u672c\u57ce", "name:zh-Hans": "\u65e5\u672c\u57ce", "name:zh-Hant": "\u65e5\u672c\u57ce", "shop": "houseware"}}, {"type": "node", "id": 7205316160, "lat": 22.2063187, "lon": 114.0284953, "tags": {"addr:housenumber": "119", "addr:street": "\u5927\u65b0\u6d77\u508d\u8def Tai San Praya Road", "name": "\u6ed4\u6642\u88dd", "shop": "clothes"}}, {"type": "node", "id": 7205316165, "lat": 22.207243, "lon": 114.0296291, "tags": {"addr:street": "\u5927\u65b0\u5f8c\u8857 Tai San Back Street", "name": "\u96c6\u5bf6\u4e94\u91d1\u6f06\u6cb9", "name:zh": "\u96c6\u5bf6\u4e94\u91d1\u6f06\u6cb9", "shop": "hardware"}}, {"type": "node", "id": 7205316168, "lat": 22.2078372, "lon": 114.0288883, "tags": {"name": "\u6176\u767c\u8a18", "name:zh": "\u6176\u767c\u8a18", "shop": "yes"}}, {"type": "node", "id": 7205316170, "lat": 22.2074616, "lon": 114.029592, "tags": {"addr:housenumber": "157", "addr:street": "\u5927\u65b0\u5f8c\u8857 Tai San Back Street", "name": "\u65b0\u5bcc\u8c6a\u6d17\u8863\u5e97", "name:zh": "\u65b0\u5bcc\u8c6a\u6d17\u8863\u5e97", "shop": "laundry"}}, {"type": "node", "id": 7205316171, "lat": 22.2050226, "lon": 114.0269155, "tags": {"name": "\u751f\u5229\u6d17\u8863\u5e97", "shop": "laundry"}}, {"type": "node", "id": 7205316172, "lat": 22.2064083, "lon": 114.0285342, "tags": {"addr:housenumber": "115", "addr:street": "\u5927\u65b0\u6d77\u508d\u8def Tai San Praya Road", "name": "\u7d05\u99ac\u6d77\u508d\u9905\u5e97", "shop": "bakery"}}, {"type": "node", "id": 7205316174, "lat": 22.2083124, "lon": 114.0288583, "tags": {"amenity": "pharmacy", "brand": "\u842c\u5be7 Mannings", "brand:en": "Mannings", "brand:wikidata": "Q13646560", "brand:zh": "\u842c\u5be7", "brand:zh-Hans": "\u4e07\u5b81", "brand:zh-Hant": "\u842c\u5be7", "healthcare": "pharmacy", "name": "\u842c\u5be7 Mannings", "name:en": "Mannings", "name:zh": "\u842c\u5be7", "name:zh-Hans": "\u4e07\u5b81", "name:zh-Hant": "\u842c\u5be7", "shop": "chemist"}}, {"type": "node", "id": 7205316177, "lat": 22.2062658, "lon": 114.0284727, "tags": {"name": "\u6210\u8208\u4e94\u91d1", "shop": "hardware"}}, {"type": "node", "id": 7966079192, "lat": 22.2074728, "lon": 114.0288497, "tags": {"name": "\u4e2d\u8208", "name:zh": "\u4e2d\u8208", "shop": "yes"}}, {"type": "node", "id": 7966079193, "lat": 22.2074418, "lon": 114.0288493, "tags": {"name": "\u96dc\u8ca8\u6797", "name:zh": "\u96dc\u8ca8\u6797", "shop": "yes"}}, {"type": "node", "id": 8374730152, "lat": 22.2070016, "lon": 114.0291442, "tags": {"addr:housenumber": "49", "addr:street": "\u5927\u65b0\u8857 Tai San Street", "name": "\u65b0\u767d\u6d0b\u6d17\u8863\u5e97", "name:zh": "\u65b0\u767d\u6d0b\u6d17\u8863\u5e97", "shop": "laundry"}}, {"type": "node", "id": 8374730153, "lat": 22.2070379, "lon": 114.0291493, "tags": {"addr:housenumber": "51", "addr:street": "\u5927\u65b0\u8857 Tai San Street", "name": "\u5343\u8272\u5e97", "name:zh": "\u5343\u8272\u5e97", "shop": "clothes"}}, {"type": "node", "id": 8374730157, "lat": 22.2065543, "lon": 114.0291013, "tags": {"addr:housenumber": "27-29", "addr:street": "\u5927\u65b0\u8857 Tai San Street", "brand": "759\u963f\u4fe1\u5c4b 759 Store", "brand:en": "759 Store", "brand:wikidata": "Q10846179", "brand:zh": "759\u963f\u4fe1\u5c4b", "brand:zh-Hans": "759\u963f\u4fe1\u5c4b", "brand:zh-Hant": "759\u963f\u4fe1\u5c4b", "name": "759\u963f\u4fe1\u5c4b 759 Store", "name:en": "759 Store", "name:zh": "759\u963f\u4fe1\u5c4b", "name:zh-Hans": "759\u963f\u4fe1\u5c4b", "name:zh-Hant": "759\u963f\u4fe1\u5c4b", "opening_hours": "Mo-Su,PH 10:00-20:00", "shop": "convenience", "website": "https://www.759store.com"}}, {"type": "node", "id": 8374730158, "lat": 22.2082377, "lon": 114.029157, "tags": {"addr:housenumber": "107", "addr:street": "\u8208\u9686\u6b63\u8857 Hing Lung Main Street", "name": "\u6771\u65b9\u4e2d\u897f\u85e5\u696d", "name:zh": "\u6771\u65b9\u4e2d\u897f\u85e5\u696d", "shop": "chemist"}}, {"type": "node", "id": 8374730161, "lat": 22.2069913, "lon": 114.0292594, "tags": {"addr:housenumber": "48", "addr:street": "\u5927\u65b0\u8857 Tai San Street", "name": "\u660c\u548c\u865f", "name:zh": "\u660c\u548c\u865f", "shop": "yes"}}, {"type": "node", "id": 10792521469, "lat": 22.207368, "lon": 114.0301309, "tags": {"level": "0", "min_age": "18", "name": "\u9999\u6e2f\u8cfd\u99ac\u6703 The Hong Kong Jockey Club", "name:en": "The Hong Kong Jockey Club", "name:zh": "\u9999\u6e2f\u8cfd\u99ac\u6703", "operator": "\u9999\u6e2f\u8cfd\u99ac\u6703 The Hong Kong Jockey Club", "operator:en": "The Hong Kong Jockey Club", "operator:short": "HKJC", "operator:wikidata": "Q1262858", "operator:zh": "\u9999\u6e2f\u8cfd\u99ac\u6703", "shop": "bookmaker"}}, {"type": "node", "id": 10792521476, "lat": 22.2077268, "lon": 114.0296158, "tags": {"addr:housenumber": "171", "addr:street": "\u5927\u65b0\u5f8c\u8857 Tai San Back Street", "name": "\u83d3\u82d7", "shop": "greengrocer"}}, {"type": "node", "id": 10792521480, "lat": 22.2076901, "lon": 114.0296189, "tags": {"addr:housenumber": "169", "addr:street": "\u5927\u65b0\u5f8c\u8857 Tai San Back Street", "name": "\u7426\u9e97\u6642\u88dd", "shop": "clothes"}}, {"type": "node", "id": 10792521484, "lat": 22.2080617, "lon": 114.0295327, "tags": {"addr:housenumber": "57", "addr:street": "\u8208\u9686\u5f8c\u8857 Hing Lung Back Street", "name": "88\u9aee\u820d", "shop": "hairdresser"}}, {"type": "node", "id": 10792521486, "lat": 22.2077593, "lon": 114.0296133, "tags": {"addr:housenumber": "173", "addr:street": "\u5927\u65b0\u5f8c\u8857 Tai San Back Street", "name": "\u4f58\u70f1\u8a18\u73a9\u5177\u5c08\u9580\u5e97", "shop": "toys"}}, {"type": "node", "id": 10792521491, "lat": 22.2055839, "lon": 114.0274551, "tags": {"name": "\u4f55\u6069\u8a18", "shop": "bicycle"}}, {"type": "node", "id": 11853991960, "lat": 22.2075046, "lon": 114.0292185, "tags": {"addr:housenumber": "73", "addr:street": "\u5927\u65b0\u8857 Tai San Street", "brand": "7-Eleven", "brand:wikidata": "Q259340", "level": "0", "name": "7-Eleven", "opening_hours": "Mo-Su 09:00-19:30", "shop": "convenience"}}]}